numero_dpe;nom_methode_dpe;date_etablissement_dpe;consommation_energie;classe_consommation_energie;estimation_ges;classe_estimation_ges;secteur_activite;annee_construction;surface_habitable;tv016_departement_id;commune;nom_rue;numero_rue;batiment;escalier;etage;porte;code_postal;numero_lot;etat_avancement;organisme_certificateur;adresse_organisme_certificateur;longitude;latitude;geo_adresse;tr013_type_erp_type;tv017_zone_hiver_code
1392V8000001I;Méthode Facture;25/04/2013;1018;G;33;D;Autres (théâtres, salles de sport, restaurati;1947;1014.53;92;RUEIL-MALMAISON;Hôtel Le Relais 93 boulevard Franklin Roosevelt;;;;;;92500;Non communiqué;1;Bureau Veritas Certification;Le Guillaumet 92046 PARIS LA DEFENSE CEDEX (détail sur www.cofrac.fr programme n°4-4-11);;;;;H1
1392V6000001G;Méthode Facture;25/04/2013;915;F;29;B;Occupation continue (hôpitaux, hôtels, intern;1947;588.17;92;RUEIL-MALMAISON;Hôtel Le Relais 93 boulevard Franklin Roosevelt;;;;;;92500;Non communiqué;1;Bureau Veritas Certification;Le Guillaumet 92046 PARIS LA DEFENSE CEDEX (détail sur www.cofrac.fr programme n°4-4-11);;;;;H1
1392V8000002J;Méthode Facture;25/04/2013;6997;G;227;G;Autres (théâtres, salles de sport, restaurati;1;116.05;92;RUEIL-MALMAISON;Hôtel Le Relais 93 boulevard Franklin Roosevelt;;;;;;92500;Non communiqué;1;Bureau Veritas Certification;Le Guillaumet 92046 PARIS LA DEFENSE CEDEX (détail sur www.cofrac.fr programme n°4-4-11);;;;;H1
1393V4000003H;Méthode Facture;04/05/2013;624;F;20;C;Bureau, Administration, Enseignement;1947;965.47;93;AULNAY SOUS BOIS;5 RUE LEON JOUHAUX;;;;;;93600;Sans objet;1;C115 QUALIXPERT 17 RUE BORREL 81100 CASTRES;17 rue Borrel 81100 CASTRES (détail sur www.cofrac.fr programme n°4-4-11);;;;;H1
1393V3000001E;Méthode Facture;05/05/2013;1702;G;55;D;Bureau, Administration, Enseignement;1947;57.20;93;DRANCY;70 AVENUE HENRI BARBUSSE;;;;;;93700;Non communiqué(s);1;C 112 PAR QUALIXPERT 17 RUE BORREL 81100 CASTRES;17 rue Borrel 81100 CASTRES (détail sur www.cofrac.fr programme n°4-4-11);4.1026819;48.3022071;Avenue Henri Barbusse (Pont) Saint-Parres-aux-Tertres;;H1
1375V8000003L;Méthode Facture;06/05/2013;1030;G;33;D;Autres (théâtres, salles de sport, restaurati;1947;99.00;75;PARIS;68 rue Manin;;;Etage RDC;;;75019;;1;Bureau Veritas Certification - 60 avenue du Général de Gaulle - 92046 Paris La Défense;Le Guillaumet 92046 PARIS LA DEFENSE CEDEX (détail sur www.cofrac.fr programme n°4-4-11);2.279889;48.768716;68 Rue Jean Longuet 92290 Châtenay-Malabry;;H1
1395V8000002M;FACTURE;14/05/2013;658.83;G;21.45;C;\N;1996;77.00;95;MENUCOURT;5, rue de la Marèche;\N;\N;\N;\N;\N;95180;;1;ICERT;Beauchamp;1.980013;49.025538;5 Rue de la Mareche 95180 Menucourt;M : Magasins de vente, centres commerciaux;H1
1375V3000001E;FACTURE - DPE;15/05/2013;571.96;F;18.62;C;Bureaux;1948;46.75;75;PARIS;Jules Guesde;25;;;;;75014;;1;CERTIFICATED;12, avenue Gay Lussac ZAC La Clef Saint Pierre 78990 ELANCOURT;2.321501;48.836163;25 Rue Jules Guesde 75014 Paris;;H1
1394L2000011E;FACTURE;15/05/2013;651.51;F;21.21;C;\N;1982;495.00;94;VILLEJUIF;100 avenue de Stalingrad;\N;\N;\N;\N;\N;94800;Nc;1;AFAQ;11 rue Francis de Pressensé 93571 La Plaine Saint Denis;2.366931;48.783434;100 Avenue de Stalingrad 94800 Villejuif;;H1
1375C2000002D;Méthode Facture;16/05/2013;355;F;11;B;Centres Commerciaux;1947;36.98;75;PARIS 11;18, rue de BELFORT;;;"Bat. rue; Etage RDC; Porte Droite";;;75011;113;1;Bureau Veritas;Le Guillaumet 92046 PARIS LA DEFENSE CEDEX (détail sur www.cofrac.fr programme n°4-4-11);2.478715;48.773399;18 Rue de l’Avenir 94380 Bonneuil-sur-Marne;;H1
1394V4000014K;FACTURE - DPE;15/05/2013;563.69;F;18.35;C;;1974;\N;94;SAINT-MANDE;5 BIS RUE FAYS;;;;;;94160;;1;DEKRA;5 AV GARLANDE 92220  BAGNEUX;2.418477;48.847033;5bis Rue Fays 94160 Saint-Mandé;;H1
1375C1000001B;3CL - DPE;17/05/2013;1057.48;G;85.8;G;Commerce;1890;0.00;75;PARIS;Mozart;108;;;RDC;;75016;;1;GINGER CATED;12 avenue Gay Lussac 78990 ELANCOURT;2.267017;48.850668;108 Avenue Mozart 75016 Paris;M : Magasins de vente, centres commerciaux;H1
1392V4000032I;FACTURE;22/05/2013;673.63;F;11.35;B;\N;1987;31979.20;92;PUTEAUX;10-12 Cours Michelet;\N;\N;\N;\N;\N;92030;;1;ICERT;Parc Edonia, Bât G, Rue de la terre Victoria, 35760 Saint-Grégoire;2.246855;48.887909;12 Cours Michelet 92800 Puteaux;;H1
1377V8000001L;FACTURE;26/05/2013;980.4;G;31.92;D;\N;1900;33.00;77;MEAUX;54, rue du Faubourg Saint Nicolas 2, Place du Temple;\N;\N;\N;\N;\N;77100;;1;Bureau Veritas Certification;60, Avenue du Général de Gaulle 92046 PARIS LA DEFENSE;;;;M : Magasins de vente, centres commerciaux;H1
1375V3000003G;FACTURE - DPE;28/05/2013;2007.07;G;65.35;E;PHARMACIE;1948;\N;75;PARIS;René Coty;15;;;;;75014;;1;BUREAU VERITAS;60 avenue du Général de Gaulle 92046 PARIS LA DEFENSE;2.334069;48.830482;15 Avenue René Coty 75014 Paris;;H1
1391V8000002I;FACTURE - DPE;15/05/2013;914.14;G;100.95;G;Restaurant;2000;\N;91;YERRES;102 RUE PIERRE BROSSOLETTE;;;;;;91330;;1;DEKRA CERTIFICATION SAS;5 avenue Garlande 92220 Bagneux;2.484055;48.700862;102 Rue Pierre Brossolette 91330 Yerres;;H1
1393V8000002K;Méthode Facture;30/05/2013;484;F;15;C;Autres (théâtres, salles de sport, restaurati;1947;99.00;93;COUBRON;9/13 rue de la Dhuys;;;;;;93470;;1;;;;;;;H1
1375V8000005N;3CL - DPE;29/05/2013;1068.99;G;87.16;F;Local commercial;1850;0.00;75;PARIS - 4EME;12 RUE PECQUAY;\N;\N;\N;\N;\N;75004;NC;1;SOCOTEC;3 avneue de Centre - Guyancourt CS 20732  78182  SAINT QUENTIN EN YVELINES;2.35622;48.86013;12 Rue Pecquay 75004 Paris;N : Restaurants et débits de boisson;H1
1393V7000003K;Méthode Facture;01/06/2013;1764;G;57;E;Autres (théâtres, salles de sport, restaurati;1947;76.73;93;SEVRAN;50 AVENUE JOHN FITZGERALD KENNEDY;;;;;;93270;Sans objet;1;C115 QUALIXPERT 17 RUE BORREL 81100 CASTRES;17 rue Borrel 81100 CASTRES (détail sur www.cofrac.fr programme n°4-4-11);2.4225561;48.9403824;Avenue John Fitzgerald Kennedy (Pont) Le Bourget;;H1
1375V8000006O;FACTURE;03/06/2013;484.97;F;106.71;G;\N;1910;200.31;75;PARIS;29, boulevard de Grenelle et sans numéro, rue Saint Saëns;\N;\N;\N;\N;\N;75015;;1;DEKRA;5, avenue Garlande 92220 BAGNEUX;;;;M : Magasins de vente, centres commerciaux;H1
1375V8000007P;Méthode Facture;03/06/2013;1253;G;44;D;Autres (théâtres, salles de sport, restaurati;1;519.20;75;PARIS;30 AVENUE PIERRE MENDES FRANCE;;;;;;75013;Sans objet;1;10-42 DELIVRE PAR ABCIDIA;4 route de la Noue 91190 GIF SUR YVETTE (détail sur www.cofrac.fr programme n°4-4-11);2.425245;48.932028;Avenue Francis de Pressensé 93350 Le Bourget;;H1
1377XX000001A;3CL - DPE;31/05/2013;918.16;G;29.89;D;Commerce;2002;0.00;77;DAMMARIE-LES-LYS;Avenue du Colonel Fabien;444;\N;\N;\N;\N;77190;NC;1;ICERT;;2.64685;48.524287;Avenue du Colonel Fabien 77190 Dammarie-les-Lys;;H1
1375V8000010J;Méthode Facture;04/06/2013;1207;G;42;D;Autres (théâtres, salles de sport, restaurati;1;270.60;75;PARIS;30 AVENUE PIERRE MENDES FRANCE;;;;;;75013;Sans objet;1;10-42 DELIVRE PAR ABCIDIA;4 route de la Noue 91190 GIF SUR YVETTE (détail sur www.cofrac.fr programme n°4-4-11);2.425245;48.932028;Avenue Francis de Pressensé 93350 Le Bourget;;H1
1392V8000008P;Méthode Facture;04/06/2013;625;G;20;C;Autres (théâtres, salles de sport, restaurati;1947;54.82;92;BOURG LA REINE;106 ave du Gal LECLERC;;;;;;92340;;1;;;;;;;H1
1375XX000003A;3CL - DPE;05/06/2013;1498.83;G;48.8;C;Commerce;1930;0.00;75;PARIS - 14EME;l'Amiral Mouchez;78;;Sans objet;RDC;Sans objet;75014;NC;1;AFNOR Certification;11 Rue Francis de Pressensé 93571 SAINT-DENIS CEDEX;2.342539;48.821168;78 Rue de l'Amiral Mouchez 75014 Paris;N : Restaurants et débits de boisson;H1
1393V4000015K;FACTURE;05/06/2013;560.45;F;9.29;B;\N;2003;19140.00;93;ST-OUEN-CEDEX;Eurosquare 2;\N;\N;\N;\N;\N;93400;;1;ICERT;n/c;;;;;H1
1392V4000058Q;FACTURE;05/06/2013;605.88;F;36.37;D;\N;1972;48950.00;92;LA-DEFENSE-CEDEX;Europlaza;\N;\N;\N;\N;\N;92927;;1;ICERT;n/c;;;;;H1
1377V4000013K;Méthode Facture;06/06/2013;939;G;30;C;Bureau, Administration, Enseignement;1;2453.00;77;MAREUIL-LÈS-MEAUX;6 Avenue Fridingen;;;Ce bien ne fait pas partie d'une copropriété;;;77100;;1;Bureau Véritas Certification;Le Guillaumet 92046 PARIS LA DEFENSE CEDEX (détail sur www.cofrac.fr programme n°4-4-11);;;;;H1
1375V3000006J;3CL - DPE;07/06/2013;696;F;23;C;Habitation (parties privatives d immeuble col;1974;75.00;75;PARIS;d Assas;16;\N;\N;Rez de chaussee;\N;75006;\N;1;DEKRA CERTIFICATION DE PERSONNES S.A.S.;ADRESSE ORGANISME CERTIFICATEUR;2.3285;48.849156;16 Rue d'Assas 75006 Paris;;H1
1392V4000074O;FACTURE - DPE;07/06/2013;662.2;F;21.56;C;bureaux;1948;30.00;92;ASNIERES SUR SEINE;66 RUE DES BOURGUIGNONS;;;;;;92600;;1;Bureau Veritas Certification;5 CHEMIN DU JUBIN BAT C - 80220 DARDILLY CEDEX;2.275786;48.915543;Rue des Bourguignons 92270 Bois-Colombes;;H1
1393V7000005M;Méthode Facture;09/06/2013;1543;G;50;E;Autres (théâtres, salles de sport, restaurati;1947;125.40;93;BAGNOLET;197, rue Robespierre;;;;;;93170;;1;;;;;;;H1
1395V8000004O;FACTURE;10/06/2013;979.69;G;31.89;D;\N;1900;77.00;95;ENNERY;24, rue du Moutier;\N;\N;\N;\N;\N;95300;;1;ICERT;Beauchamp;2.105676;49.076503;24 Rue du Moutier 95300 Ennery;M : Magasins de vente, centres commerciaux;H1
1393V7000008P;FACTURE - DPE;10/06/2013;432.52;F;38.64;D;Commerce;2005;9801.00;93;SAINT-OUEN;Victot Hugo;89;;;;;93400;;1;Socotec Certification;les Quadrants - 3 av du centre - Guyancourt CS20732 78182 Saint Quentin en Yvelines Cedex;2.327186;48.907681;89 Boulevard Victor Hugo 93400 Saint-Ouen-sur-Seine;;H1
1375V3000011F;3CL - DPE;11/06/2013;972;G;32;D;Habitation (parties privatives d immeuble col;1974;79.00;75;PARIS;Saint-Michel;63;\N;\N;Rez de chaussee;\N;75005;\N;1;DEKRA CERTIFICATION DE PERSONNES S.A.S.;ADRESSE ORGANISME CERTIFICATEUR;2.341177;48.847504;63 Boulevard Saint-Michel 75005 Paris;;H1
1375L2000290M;FACTURE;11/06/2013;563.13;F;24.63;C;\N;1920;159.50;75;PARIS;41 rue Réaumur;\N;\N;\N;\N;\N;75003;;1;AFAQ;11 rue Francis de Pressensé 93571 La Plaine Saint Denis Cedex;2.35419;48.865771;41 Rue Réaumur 75003 Paris;;H1
1394V8000007Q;Méthode Facture;11/06/2013;439;F;102;G;Autres (théâtres, salles de sport, restaurati;1947;101.86;94;SAINT MAUR DES FOSSES;60 boulevard de Créteil;;;rdc;;;94100;;1;QUALIXPERT;17 rue Borrel 81100 CASTRES (détail sur www.cofrac.fr programme n°4-4-11);;;;;H1
1375V8000013M;Méthode Facture;11/06/2013;409;F;13;C;Autres (théâtres, salles de sport, restaurati;1947;43.22;75;PARIS 14;202, Av du Maine;;;Local commercial sur rue;;;75014;5 - 30 (cave);1;Bureau Veritas;Le Guillaumet 92046 PARIS LA DEFENSE CEDEX (détail sur www.cofrac.fr programme n°4-4-11);2.316068;48.782646;Rue du 8 Mai 1945 92340 Bourg-la-Reine;;H1
1392V4000087S;FACTURE;11/06/2013;558.08;F;52.64;D;\N;2008;77000.00;92;COURBEVOIE;1 Place Samuel de Champlain;\N;\N;\N;\N;\N;92400;;1;ICERT;n/c;2.239661;48.89559;1 Place Samuel de Champlain 92400 Courbevoie;;H1
1375V7000004L;Méthode Facture;12/06/2013;394;F;12;C;Autres (théâtres, salles de sport, restaurati;1947;152.35;75;PARIS;3-5-7 Rue Saint Augustin;;;Rez-de-Chaussée;;;75002;;1;CESI Certification;30 rue Cambronne 75015 PARIS (détail sur www.cofrac.fr programme n°4-4-11);2.293875;48.751269;7 Rue des Augustins 92160 Antony;;H1
1395V4000036P;FACTURE - DPE;12/06/2013;1397.98;G;77.14;E;LOCAL COMMERCIAL;1948;80.67;95;ARNOUVILLE;Jean Jaurès;158/160;;;;;95400;;1;BUREAU VERITAS;60 avenue du général de Gaulle 92046 PARIS-LA DEFENSE CEDEX;2.419447;48.98606;160 Rue Jean Jaurès 95400 Arnouville;;H1
1375I2000006E;Méthode Facture;12/06/2013;496;G;116;G;\N;1;59.71;75;PARIS;36, avenue Reille;;;3 ème étage - batiment C -;;;75014;appart. lot 421 - Cave lot 408 - Garage lot 3;1;Bureau Veritas 41 Chemin des Peupliers BP 58 69573 DARDILLY Cedex;Le Guillaumet 92046 PARIS LA DEFENSE CEDEX (détail sur www.cofrac.fr programme n°4-4-11);2.322992;48.784712;36 Avenue de Bellevue 92340 Bourg-la-Reine;;H1
1377V3000004J;3CL - DPE;10/06/2013;720.37;F;23.45;C;Bureaux;1995;0.00;77;CHARTRETTES;avenue Galliéni;39;\N;\N;\N;\N;77590;NC;1;ICERT;;2.688128;48.476342;39 Avenue Galliéni 77590 Bois-le-Roi;;H1
1391C2000002B;Méthode Facture;13/06/2013;464;G;15;B;Centres Commerciaux;1;165.00;91;STE GENEVIEVE DES BOIS;12, route de Corbeil;;;;;;91700;;1;;;;;;;H1
1375C2000005G;Méthode Facture;13/06/2013;737;G;24;C;Centres Commerciaux;1947;29.70;75;PARIS 08;15, Boulevard des Batignoles;;;"Bat. rue; Etage RDC; Porte Rue";;;75008;1/ sous-sol 52;1;Bureau Veritas;Le Guillaumet 92046 PARIS LA DEFENSE CEDEX (détail sur www.cofrac.fr programme n°4-4-11);2.446726;48.906762;15 Boulevard Maurice Thorez 93000 Bobigny;;H1
1392V8000012K;3CL - DPE;12/05/2013;1341.86;G;123.12;G;Commerce;1930;0.00;92;NEUILLY-SUR-SEINE;Charles de Gaulle;142;\N;\N;Rez de chaussée;\N;92200;NC;1;Ginger Cated;;2.264048;48.88397;142 Avenue Charles de Gaulle 92200 Neuilly-sur-Seine;N : Restaurants et débits de boisson;H1
1375V4000137P;FACTURE - DPE;13/06/2013;1053.5;G;34.3;D;Boutique;1948;120.00;75;PARIS;41 RUE DES FRANCS BOURGEOIS;;;;;;75004;;1;Bureau Veritas Certification;5 CHEMIN DU JUBIN BAT C - 80220 DARDILLY CEDEX;2.359938;48.857977;41 Rue des Francs Bourgeois 75004 Paris;;H1
1393V8000005N;Méthode Facture;13/06/2013;608;G;65;E;Autres (théâtres, salles de sport, restaurati;1947;77.00;93;LES LILAS;49, Bd de la Liberté;;;;;;93260;;1;;;;;;;H1
1391V8000005L;Méthode Facture;13/06/2013;1097;G;83;F;Autres (théâtres, salles de sport, restaurati;1947;100.54;91;VIGNEUX-SUR-SEINE;2bis, rue Salengro;;;;;;91270;Non communiqué;1;Bureau Veritas Certification;Le Guillaumet 92046 PARIS LA DEFENSE CEDEX (détail sur www.cofrac.fr programme n°4-4-11);;;;;H1
1375V8000018R;FACTURE - DPE;13/06/2013;838.5;G;27.3;D;Commerce;1948;120.00;75;PARIS;41 RUE DES FRANCS BOURGEOIS;;;;;;75004;;1;Bureau Veritas Certification;5 CHEMIN DU JUBIN BAT C - 80220 DARDILLY CEDEX;2.359938;48.857977;41 Rue des Francs Bourgeois 75004 Paris;;H1
1375V4000145O;FACTURE;14/06/2013;586.97;F;19.11;C;\N;1970;88.00;75;PARIS;38 rue du Surmelin;\N;\N;\N;\N;\N;75020;;1;DEKRA;n/c;2.404629;48.868635;38 Rue du Surmelin 75020 Paris;;H1
1378V7000002M;FACTURE SEULE;07/06/2013;465.47;F;48.61;E;\N;1970;100.00;78;RAMBOUILLET;Auguste Moutié, Centre Commercial La Louvière;8;\N;\N;\N;\N;78120;\N;1;SOCOTEC Certification;Les Quadrants - 3 av. du Centre;1.839404;48.644252;8 Rue Auguste Moutie 78120 Rambouillet;;H1
1393V4000036N;Méthode Facture;14/06/2013;566;F;85;E;Bureau, Administration, Enseignement;1947;159.50;93;MONTREUIL;253 AVENUE ARISTIDE BRIAND;;;;;;93100;Sans objet;1;10-42 DELIVRE PAR ABCIDIA;4 route de la Noue 91190 GIF SUR YVETTE (détail sur www.cofrac.fr programme n°4-4-11);-0.6183276;45.7455438;Avenue Aristide Briand (Pont) Saintes;;H1
1392V3000011E;3CL - DPE;15/06/2013;1201;G;39;D;Habitation (parties privatives d immeuble col;2001;0.00;92;LE PLESSIS ROBINSON;Charles de Gaulle;58;\N;\N;Rez de chaussee;\N;92350;01;1;DEKRA CERTIFICATION;5 AVENUE GARLANDE 92220 BAGNEUX;2.258246;48.777616;58 Avenue Charles de Gaulle 92350 Le Plessis-Robinson;N : Restaurants et débits de boisson;H1
1393XX000003A;3CL - DPE;15/06/2013;488.5;F;15.9;C;Commerce;1970;0.00;93;Montreuil;de Chanzy;2;\N;\N;Rez de chaussée;\N;93100;NC;1;Abcidia certification;4 route de la Noue 91190 Gif-sur-Yvette;2.436327;48.85818;2 Boulevard de Chanzy 93100 Montreuil;M : Magasins de vente, centres commerciaux;H1
1375V8000023N;FACTURE;17/06/2013;386.31;F;12.57;C;\N;1900;37.40;75;PARIS;69 rue du Chemin Vert;\N;\N;\N;\N;\N;75011;;1;Afnor;11 rue Francis de Pressensé 93571;2.378043;48.860179;69 Rue du Chemin Vert 75011 Paris;M : Magasins de vente, centres commerciaux;H1
1375V4000154O;FACTURE - DPE;17/06/2013;585.31;F;19.06;C;bureaux;1948;\N;75;PARIS;28 RUE CAUMARTIN;;;;;;75009;;1;CPDI 2307;35760 Saint-Grégoire;;;;;H1
1394L2000066O;FACTURE;18/06/2013;924.49;G;30.09;D;\N;1900;27.91;94;ARCUEIL;20 avenue Laplace;\N;\N;\N;\N;\N;94110;Nc;1;AFAQ;11 rue Francis de Pressensé 93571 La Plaine Saint Denis;2.334539;48.807569;20 Avenue Laplace 94110 Arcueil;;H1
1393V3000006J;Méthode Facture;18/06/2013;852;G;27;C;Bureau, Administration, Enseignement;1;275.00;93;SAINT-OUEN;3, Rue Jean Martin;;;1er Etage;;;93400;0003;1;Bureau Véritas;Le Guillaumet 92046 PARIS LA DEFENSE CEDEX (détail sur www.cofrac.fr programme n°4-4-11);;;;;H1
1395V8000005P;Méthode Facture;17/06/2013;814;G;57;E;Autres (théâtres, salles de sport, restaurati;1947;110.00;95;L'ISLE-ADAM;71 rue de Pontoise;;;local commercial en RDC d'un immeuble;;;95290;Non communiqué;1;Bureau VERITAS;Le Guillaumet 92046 PARIS LA DEFENSE CEDEX (détail sur www.cofrac.fr programme n°4-4-11);1.9617458;49.0076213;Rue de Pontoise Vaux-sur-Seine;;H1
1375V8000025P;3CL - DPE;18/06/2013;672.7;G;21.9;C;Commerce;1947;0.00;75;PARIS - 19EME;de Belleville;93;;;RDC;;75019;NC;1;ABCIDIA CERTIFICATION;4 route de la Noue 91190 GIF SUR YVETTE;2.38536;48.874027;93 Rue de Belleville 75019 Paris;;H1
1378V4000039T;FACTURE;18/06/2013;1994.2;G;70.27;E;\N;1970;160.60;78;VERSAILLES;16 boulevard de la Reine;\N;\N;\N;\N;\N;78000;18;1;AFAQ;11 rue Francis de Pressensé 93571 La Plaine Saint Denis;2.125959;48.809344;16 Boulevard de la Reine 78000 Versailles;W : Administrations, banques, bureaux;H1
1375V7000008P;Méthode Facture;18/06/2013;767;G;24;C;Autres (théâtres, salles de sport, restaurati;1947;35.20;75;PARIS;124 rue Legendre;;;Local commercial sur rue;;;75017;;1;CATED;;2.497409;48.814387;124 Rue de Verdun 94500 Champigny-sur-Marne;;H1
1375V8000026Q;Méthode Facture;18/06/2013;739;G;24;C;Autres (théâtres, salles de sport, restaurati;1947;37.24;75;PARIS;22 RUE SURCOUF;;;;;;75007;Non communiqué(s);1;N°869 PAR GINGER CATED;12 avenue Gay Lussac ZAC LA CLEF ST PIERRE 78990 ELANCOURT (détail sur www.cofrac.fr programme n°4-4-11);2.308385;48.798995;22 Rue Marc Sangnier 92220 Bagneux;;H1
1391V4000037M;FACTURE;19/06/2013;624.72;F;20.34;C;\N;1970;77.00;91;ÉVRY;24 cours Blaise Pascal;\N;\N;\N;\N;\N;91000;74/75;1;AFAQ;11 rue Francis de Pressensé 93571 La Plaine Saint Denis;2.430378;48.626966;24 Cours Blaise Pascal 91000 Évry-Courcouronnes;M : Magasins de vente, centres commerciaux;H1
1375V4000167S;FACTURE - DPE;19/06/2013;613.63;F;19.98;C;bureaux;1948;\N;75;PARIS;Basfroi;4;;;;;75011;;1;Bureau VERITAS;60, avenue du Général de Gaulle 92046 Paris La Défense;2.380285;48.853833;4 Rue Basfroi 75011 Paris;;H1
1375V7000009Q;3CL - DPE;19/06/2013;627.32;G;53.24;E;Commerce;1900;0.00;75;Paris - 1er;Danièle Casanova;11bis;\N;\N;Rez de chaussée;\N;75001;NC;1;GINGER CATED;12 avenue Gay-Lussac 78990 Elancourt;2.33271;48.867688;11 Rue Danielle Casanova 75001 Paris;N : Restaurants et débits de boisson;H1
1375L2000484R;FACTURE;19/06/2013;413.97;F;8.66;B;\N;1920;174.50;75;PARIS;49 rue Meslay;\N;\N;\N;\N;\N;75003;;1;AFAQ;11 rue Francis de Pressensé 93571 La Plaine Saint Denis Cedex;2.357759;48.868116;49 Rue Meslay 75003 Paris;;H1
1393V7000010I;FACTURE;19/06/2013;826.9;G;12.68;C;\N;1990;47.32;93;NOISY-LE-GRAND;100 rue Pierre Brossolette;\N;\N;\N;\N;\N;93160;;1;BUREAU VERITAS;n/c;2.54532;48.847399;100 Rue Pierre Brossolette 93160 Noisy-le-Grand;;H1
1375V4000168T;FACTURE;19/06/2013;573.05;F;99.35;E;\N;1966;292.60;75;PARIS;2 RUE L'HOMOND;\N;\N;\N;\N;\N;75005;;1;BUREAU VERITAS;n/c;2.29118;48.848829;2 Rue Fondary 75015 Paris;;H1
1375V8000027R;Méthode Facture;10/06/2013;456;F;14;C;Autres (théâtres, salles de sport, restaurati;1;522.50;75;PARIS;65, Quai de la Gare;;;RDC;;;75013;Non communiqué;1;LCC Qualixpert;17 rue Borrel 81100 CASTRES (détail sur www.cofrac.fr programme n°4-4-11);2.435014;48.937072;Résidence du Gai Logis 93350 Le Bourget;M : Magasins de vente, centres commerciaux;H1
1375V8000028S;3CL - DPE;19/06/2013;450;F;15;C;Local commercial;1974;0.00;75;PARIS;CHEVERT;30;\N;\N;Rez de chaussee;sur rue;75007;2;1;SGS ICS;29 AVENUE ARISTIDE BRIAND 94211 ARCUEIL CEDEX;2.307794;48.854841;30 Rue Chevert 75007 Paris;;H1
1375V8000033O;Méthode Facture;12/06/2013;441;F;14;C;Autres (théâtres, salles de sport, restaurati;1947;225.50;75;PARIS;36-38 rue Emile Zola;;;RDC;;;75015;39 (local commercial);1;LCC Qualixpert;17 rue Borrel 81100 CASTRES (détail sur www.cofrac.fr programme n°4-4-11);;;;M : Magasins de vente, centres commerciaux;H1
1375V4000178U;FACTURE;20/06/2013;691.06;F;64.38;E;\N;1950;276.10;75;PARIS;3 rue Gramont;\N;\N;\N;\N;\N;75002;500;1;GINGER CATED;12 av Gay Lussac ZAC La Clef St Pierre 78990 ELANCOURT;2.33666;48.869275;3 Rue de Gramont 75002 Paris;W : Administrations, banques, bureaux;H1
1394V3000007L;FACTURE - DPE;20/06/2013;1089.29;G;36;D;bureaux;1974;2673.00;94;CRETEIL;de Plaisance;36;;;;;94000;;1;SQI;89 - 93 avenue Paul Vaillant Couturier 94250 GENTILLY;2.456718;48.799473;36 Rue de Plaisance 94000 Créteil;;H1
1375V8000035Q;FACTURE;20/06/2013;522.37;G;51.68;E;\N;1897;82.50;75;PARIS;1 place Léon Blum;\N;\N;\N;\N;\N;75011;2;1;Afnor;11 rue Francis de Pressensé 93571;2.379491;48.85761;1 Place Léon Blum 75011 Paris;M : Magasins de vente, centres commerciaux;H1
1375I2000011A;Méthode Facture;20/06/2013;346;F;81;G;\N;1947;35.00;75;PARIS;47, rue Daguerre;;;1 er étage gauche;;;75014;appartement lot 4 - cave lot 21;1;Bureau Veritas 41 Chemin des Peupliers BP 58 69573 DARDILLY Cedex;Le Guillaumet 92046 PARIS LA DEFENSE CEDEX (détail sur www.cofrac.fr programme n°4-4-11);2.321071;48.7807;47 Rue de la Bièvre 92340 Bourg-la-Reine;;H1
1392V8000020J;3CL - DPE;21/06/2013;845;G;28;D;Local commercial;1982;0.00;92;NEUILLY SUR SEINE;Achille Peretti;137;\N;\N;Rez de chaussee;sur rue;92200;02;1;SGS ICS;29 AVENUE ARISTIDE BRIAND 94211 ARCUEIL CEDEX;2.268577;48.884377;137 Avenue Achille Peretti 92200 Neuilly-sur-Seine;;H1
1375V8000040M;FACTURE;22/06/2013;836.5;G;27.23;D;\N;1900;75.42;75;PARIS;119 AVENUE DE VILLIERS;\N;\N;\N;\N;\N;75017;;1;ICERT;n/c;2.295056;48.885074;119 Avenue de Villiers 75017 Paris;;H1
1375V4000196U;facture;23/06/2013;816;G;38;D;Bureaux;1974;0.00;75;PARIS;du Faubourg Saint Honore;76;\N;\N;\N;\N;75008;0;1;BUREAU VERITAS;AVENUE DU GENERAL DE GAULLE 92046 PARIS LA DEFENSE;;;;;H1
1375V4000197V;facture;23/06/2013;816;G;38;D;Bureaux;1974;0.00;75;PARIS;du Faubourg Saint Honore;76;\N;\N;\N;\N;75008;0;1;BUREAU VERITAS;AVENUE DU GENERAL DE GAULLE 92046 PARIS LA DEFENSE;;;;;H1
1375V3000021G;FACTURE SEULE;18/06/2013;563.07;F;18.33;C;\N;1996;100.00;75;GENNEVILLIERS;du Moulin de Cage;116,;\N;\N;\N;\N;92230;\N;1;AFNOR Certification;11 rue Francis de Pressensé;2.313605;48.928464;116 Rue du Moulin de Cage 92230 Gennevilliers;;H1
1377V8000004O;Méthode Facture;18/06/2013;463;F;15;C;Autres (théâtres, salles de sport, restaurati;1947;62.70;77;Melun;30, rue René Pouteau / 19, rue Guy Baudoin;;;"Etage RDC; Local commercial (Salon de coiffur";;;77000;;1;Bureau Veritas Certification;Le Guillaumet 92046 PARIS LA DEFENSE CEDEX (détail sur www.cofrac.fr programme n°4-4-11);;;;;H1
1377V8000005P;Méthode Facture;18/06/2013;711;G;23;C;Autres (théâtres, salles de sport, restaurati;1947;29.89;77;Melun;30, rue René Pouteau / 19, rue Guy Baudoin;;;"Etage RDC; Local commercial (Vente de vêtemen";;;77000;;1;Bureau Veritas Certification;Le Guillaumet 92046 PARIS LA DEFENSE CEDEX (détail sur www.cofrac.fr programme n°4-4-11);;;;;H1
1391V4000045L;FACTURE - DPE;19/06/2013;545.2;F;17.75;C;bureaux;1948;127.85;91;SAINT CHERON;17/19, rue Charles de Gaulle;;;;;;91530;;1;SQI  SOCOTEC;3, Avenue du Centre - Guyancourt - 78182 ST QUENTIN EN YVELINES Cedex;2.123991;48.553559;19 Rue Charles de Gaulle 91530 Saint-Chéron;;H1
1377V4000026O;FACTURE - DPE;21/06/2013;601.1;F;19.57;C;bureaux;1977;66.00;77;VAIRES SUR MARNE;52 AVENUE JEAN JAURES;;;;;;77360;;1;BUREAU VERITAS CERTIFICATION FRANCE;60  AVENUE DU GENERAL DE GAULLE 92046 PARIS LA DEFENSE;2.636114;48.872366;52 Avenue Jean Jaurès 77360 Vaires-sur-Marne;;H1
1391V8000009P;3CL - DPE;21/06/2013;786.34;G;25.6;C;Industrie;2000;0.00;91;FONTENAY-LÈS-BRIIS;Chemin  de Bligny;11;\N;\N;\N;\N;91640;Non communiqué;1;I-CERT;;2.151598;48.628784;Plaine de Bligny 91640 Briis-sous-Forges;;H1
1392XX000001X;3CL - DPE;20/06/2013;558.55;G;18.19;C;Commerce;2005;0.00;92;ANTONY;de la Division Leclerc;68;;;;;92160;;1;GINGER CATED;12 avenue Gay Lussac 78990 ELANCOURT;2.303977;48.749183;68 Avenue de la Division Leclerc 92160 Antony;W : Administrations, banques, bureaux;H1
1375V8000043P;FACTURE;24/06/2013;413.03;F;13.44;C;\N;1750;64.90;75;PARIS;24 rue au Maire;\N;\N;\N;\N;\N;75003;1;1;Afnor;11 rue Francis de Pressensé 93571;2.356028;48.864721;24 Rue au Maire 75003 Paris;M : Magasins de vente, centres commerciaux;H1
1375V8000044Q;FACTURE;24/06/2013;1317.24;G;42.88;D;\N;1900;121.04;75;PARIS;53 rue Notre Dame de Nazareth;\N;\N;\N;\N;\N;75003;28-48-120;1;AFAQ;11 rue Francis de Pressensé 93571 La Plaine Saint Denis;2.356636;48.867638;53 Rue Notre-Dame de Nazareth 75003 Paris;M : Magasins de vente, centres commerciaux;H1
1377V3000009O;3CL - DPE;24/06/2013;592.08;F;19.28;C;Commerce;2009;0.00;77;MAGNY-LE-HONGRE;10 RUE CAMPANULES;10;Sans objet;Sans objet;Rez de chaussée;Sans objet;77700;NC;1;Icert;rue de la Terre Victoria - Parc EDONIA - Bât. G 35760 SAINT-GRÉGOIRE;2.829457;48.856792;10 Rue des Canis 77700 Bailly-Romainvilliers;N : Restaurants et débits de boisson;H1
1375V8000048U;Méthode Facture;15/05/2013;419;F;57;E;Autres (théâtres, salles de sport, restaurati;1947;346.50;75;PARIS;2 avenue Hoche;;;Esc. B, rez-de-chaussée;;;75008;420;1;SGS Certification;29 Avenue Aristide Briand 94111 ARCUEIL (détail sur www.cofrac.fr programme n°4-4-11);2.444598;48.906928;2 Avenue Paul Eluard 93000 Bobigny;;H1
1395V8000013O;Méthode Facture;19/06/2013;1097;G;122;G;Autres (théâtres, salles de sport, restaurati;1947;451.00;95;LUZARCHES;13 rue Charles de Gaulle;;;BOULANGERIE  (Appt. F4);;;95270;;1;ABCIDIA CERTIFICATION;4 route de la Noue 91190 GIF SUR YVETTE (détail sur www.cofrac.fr programme n°4-4-11);6.9342932;47.5478049;Rue Charles de Gaulle (Pont) Morvillars;;H1
1392V7000004K;Méthode Facture;25/06/2013;417;F;52;E;Autres (théâtres, salles de sport, restaurati;1947;38.09;92;RUEIL-MALMAISON;126 RUE FILLETTE NICOLAS PHILIBERT;;;;;;92500;Non communiqué;1;GINGER CATED;12 avenue Gay Lussac ZAC LA CLEF ST PIERRE 78990 ELANCOURT (détail sur www.cofrac.fr programme n°4-4-11);;;;;H1
1375V8000054R;FACTURE - DPE;14/06/2013;542.96;G;17.68;C;Commerce;1948;\N;75;PARIS;13 RUE DU 4 SEPTEMBRE  75002 PARIS;;;;;;75002;;1;CPDI 2307;35760 Saint-Grégoire;;;;;H1
1375V8000055S;Méthode Facture;26/06/2013;1998;G;65;E;Autres (théâtres, salles de sport, restaurati;1;690.80;75;PARIS;8 RUE NOTRE DAME DE LORETTE;;;;;;75009;;1;;;2.338673;48.8781706;École Notre-Dame de Lorette Paris;;H1
1378V7000006Q;3CL - DPE;26/06/2013;688;G;22;C;Commerce;1974;0.00;78;MAISONS-LAFFITTE;de Paris;68;\N;\N;Rez-de-chaussee;\N;78600;1;1;BUREAU VERITAS;60 AVENUE DU GENERAL DE GAULLE 92046 PARIS LA DEFENSE;2.148205;48.947604;68 Rue de Paris 78600 Maisons-Laffitte;;H1
1375V4000224M;Méthode Facture;25/06/2013;1252;G;40;D;Bureau, Administration, Enseignement;1;858.00;75;PARIS;15/17 rue Vulpian;;;;;;75013;;1;Bureau Veritas Certification - 60 avenue du Général de Gaulle - 92046 Paris La Défense;Le Guillaumet 92046 PARIS LA DEFENSE CEDEX (détail sur www.cofrac.fr programme n°4-4-11);2.417859;48.93245;17 Rue Carnot 93350 Le Bourget;;H1
1391V8000014L;FACTURE;27/06/2013;450.63;F;14.67;C;\N;1983;60.40;91;BREUILLET;6, rue de la Mare;\N;\N;\N;\N;\N;91650;1;1;SGS-ICS;29, avenue Aristide Briand - 94211 ARCUEIL Cedex;2.176743;48.571153;6 Rue de la Mare 91650 Breuillet;M : Magasins de vente, centres commerciaux;H1
1375V7000013L;FACTURE;27/06/2013;674.97;G;18.87;C;\N;1920;145.20;75;PARIS;5 PASSAGE DU CHANTIER;\N;\N;\N;\N;\N;75012;;1;BUREAU VERITAS;n/c;2.373328;48.851365;5 Passage du Chantier 75012 Paris;;H1
1375V8000057U;FACTURE;27/06/2013;523.63;G;17.04;C;\N;1800;47.30;75;PARIS;74 rue des Gravilliers;\N;\N;\N;\N;\N;75003;1 et10;1;Afnor;11 rue Francis de Pressensé 93571;2.354548;48.864489;74 Rue des Gravilliers 75003 Paris;M : Magasins de vente, centres commerciaux;H1
1375V8000058V;FACTURE;27/06/2013;1292.11;G;42.06;D;\N;1750;22.00;75;PARIS;30/32 rue du Bourg Tibourg;\N;\N;\N;\N;\N;75004;2;1;Afnor;11 rue Francis de Pressensé 93571;2.356607;48.85781;32 Rue du Bourg Tibourg 75004 Paris;M : Magasins de vente, centres commerciaux;H1
1391V8000016N;FACTURE;27/06/2013;450.63;F;14.67;C;\N;1983;60.40;91;BREUILLET;6, rue de la Mare;\N;\N;\N;\N;\N;91650;1;1;SGS-ICS;29, avenue Aristide Briand - 94211 ARCUEIL Cedex;2.176743;48.571153;6 Rue de la Mare 91650 Breuillet;M : Magasins de vente, centres commerciaux;H1
1375V8000059W;FACTURE;27/06/2013;440.75;F;14.35;C;\N;1900;45.98;75;PARIS;36 rue Notre Dame de Nazareth;\N;\N;\N;\N;\N;75003;2;1;AFAQ;11 rue Francis de Pressensé 93571 La Plaine Saint Denis;2.358999;48.867411;36 Rue Notre-Dame de Nazareth 75003 Paris;M : Magasins de vente, centres commerciaux;H1
1375V8000060O;Méthode Facture;19/06/2013;1237;G;40;D;Autres (théâtres, salles de sport, restaurati;1947;77.00;75;PARIS;51 RUE MONTORGUEIL;;;RDC;;;75002;;1;BUREAU VERITAS;Le Guillaumet 92046 PARIS LA DEFENSE CEDEX (détail sur www.cofrac.fr programme n°4-4-11);2.288009;48.757184;51 Rue des Mimosas 92160 Antony;M : Magasins de vente, centres commerciaux;H1
1378C1000002F;FACTURE - DPE;27/06/2013;531.84;G;17.32;C;;1974;17.27;78;MAISONS-LAFFITTE;16 A VE DU GÉNÉRAL DE GAULLE;;;;;;78600;;1;GInger Cated;12 Ave Gay Lussac, ZAC LA Clef St Pierre  78990  Elancourt;2.142105;48.94501;16 Avenue du Général de Gaulle 78600 Maisons-Laffitte;;H1
1375V4000235O;Méthode Facture;27/06/2013;663;F;21;C;Bureau, Administration, Enseignement;1947;233.20;75;PARIS 8;30 Boulevard Malesherbes;;;RDC;;;75008;;1;Bureau Veritas Certification;Le Guillaumet 92046 PARIS LA DEFENSE CEDEX (détail sur www.cofrac.fr programme n°4-4-11);2.447604;48.906447;Boulevard Maurice Thorez 93000 Bobigny;;H1
1375XX000012A;3CL - DPE;26/06/2013;784.14;G;25.53;C;Commerce;1890;0.00;75;PARIS;Ledru Rollin;91;;;4ème;;75011;;1;GINGER CATED;12 avenue Gay Lussac 78990 ELANCOURT;2.376189;48.851687;91 Avenue Ledru-Rollin 75011 Paris;W : Administrations, banques, bureaux;H1
1375V3000023I;3CL - DPE;28/06/2013;1017;G;33;D;Commerce;1974;0.00;75;PARIS;d Assas,;16;\N;\N;Rez de chaussee;\N;75006;\N;1;DEKRA CERTIFICATION DE PERSONNES S.A.S.;ADRESSE ORGANISME CERTIFICATEUR;2.3285;48.849156;16 Rue d'Assas 75006 Paris;;H1
1393V4000061L;FACTURE - DPE;25/06/2013;554.2;F;18.04;C;bureaux;1974;\N;93;NOISY-LE-SEC;de la République;12;;;;;93130;;1;Bureau contrôle certification;16 rue Eugêne Delacroix  67200 STRASBOURG;2.461533;48.89554;12 Boulevard de la République 93130 Noisy-le-Sec;;H1
1375V8000061P;FACTURE - DPE;28/06/2013;594.62;G;19.36;C;Commerce;1948;41.00;75;PARIS;rue de l'annonciation;21;;;;;75016;;1;BUREAU VERITAS CERTIFICATION;LA DEFENSE;2.279487;48.856497;21 Rue de l'Annonciation 75016 Paris;;H1
1375V4000247R;FACTURE;28/06/2013;722.72;F;46.99;D;\N;1970;255.42;75;PARIS;24 rue Royale;\N;\N;\N;\N;\N;75008;4005;1;GINGER CATED;12 av Gay Lussac ZAC La Clef St Pierre 78990 ELANCOURT;2.323968;48.868891;24 Rue Royale 75008 Paris;;H1
1375V7000016O;FACTURE SEULE;25/06/2013;464.89;F;108.78;G;\N;1948;254.00;75;PARIS 04;du Palais;3,;\N;\N;\N;\N;75004;\N;1;Bureau veritas Certification;60, avenue du Général de Gaulle;2.267778;48.909731;3 Rue du Bourbonnais 92600 Asnières-sur-Seine;;H1
1375V8000062Q;FACTURE;28/06/2013;411.03;F;13.38;C;\N;1920;50.22;75;PARIS;179 rue Saint Denis;\N;\N;\N;\N;\N;75002;;1;AFAQ;11 rue Francis de Pressensé 93571 La Plaine Saint Denis Cedex;2.350447;48.865586;179 Rue Saint-Denis 75002 Paris;M : Magasins de vente, centres commerciaux;H1
1375V8000063R;Méthode Facture;29/06/2013;1311;G;158;G;Autres (théâtres, salles de sport, restaurati;1947;143.00;75;PARIS;5 RUE FOREST;;;;;;75018;Non communiqué(s);1;10-42 DELIVRE PAR ABCIDIA;4 route de la Noue 91190 GIF SUR YVETTE (détail sur www.cofrac.fr programme n°4-4-11);2.416391;48.823946;5 Rue des Ormes 94220 Charenton-le-Pont;;H1
1375XX000014C;3CL - DPE;29/06/2013;642.68;G;150.39;G;Commerce;1947;0.00;75;PARIS - 20EME;du Borrégo;3;;;RDC;;75020;NC;1;ABCIDIA CERTIFICATION;4 route de la Noue 91190 GIF SUR YVETTE;2.39823;48.872502;3 Rue du Borrégo 75020 Paris;;H1
1375V7000017P;Méthode Facture;29/06/2013;505;F;16;C;Autres (théâtres, salles de sport, restaurati;1947;40.60;75;PARIS;27 Rue Louis Braille;;;RDC;;;75012;6 cave lot : 34;1;Bureau Veritas;Le Guillaumet 92046 PARIS LA DEFENSE CEDEX (détail sur www.cofrac.fr programme n°4-4-11);2.241587;48.84426;27 Rue des Tilleuls 92100 Boulogne-Billancourt;;H1
1378P2000001A;FACTURE - DPE;27/06/2013;863.69;G;28.12;C;;1977;100.10;78;LE VESINET;53/55 AVENUE DES PAGES;;;;;;78110;;1;GINGERCATED;78990 ELANCOURT;;;;;H1
1378V4000059V;FACTURE;01/07/2013;565.55;F;18.41;C;\N;1956;87.01;78;MAISONS-LAFFITTE;58 Avenue du Général de Gaulle;\N;\N;\N;\N;\N;78600;;1;I.Cert;116 bis, rue Eugène Pottier  35000 RENNES;2.125203;48.935067;Rue du Général Leclerc 78600 Le Mesnil-le-Roi;M : Magasins de vente, centres commerciaux;H1
1392V8000025O;FACTURE;01/07/2013;632.81;G;64.1;E;\N;1850;209.00;92;MEUDON;24 rue Marcel Allegot;\N;\N;\N;\N;\N;92190;;1;I.Cert;parc EDONIA - bâtiment G - rue de la terre Victoria - 35 760 Saint Grégoire;2.228576;48.820406;24 Rue Marcel Allégot 92190 Meudon;M : Magasins de vente, centres commerciaux;H1
1375V8000064S;FACTURE;01/07/2013;382.34;F;12.44;C;\N;1880;80.30;75;PARIS;47 rue Notre Dame de Nazareth;\N;\N;\N;\N;\N;75003;1;1;Afnor;11 rue Francis de Pressensé 93571;2.357097;48.867569;47 Rue Notre-Dame de Nazareth 75003 Paris;M : Magasins de vente, centres commerciaux;H1
1375V8000065T;Méthode Facture;01/07/2013;3184;G;103;G;Autres (théâtres, salles de sport, restaurati;1947;242.00;75;PARIS;4 BOULEVARD RICHARD LENOI;;;RDC;;;75011;18;1;véritas 60 avenue du général leclerc 92046 PARIS LA DEFENSE;Le Guillaumet 92046 PARIS LA DEFENSE CEDEX (détail sur www.cofrac.fr programme n°4-4-11);;;;N : Restaurants et débits de boisson;H1
1377V8000010L;Méthode Facture;01/07/2013;509;F;36;D;Autres (théâtres, salles de sport, restaurati;1947;110.00;77;SAINT-GERMAIN-SUR-MORIN;Représenté par Mr XIA 8 rue de Paris;;;;;;77860;Non communiqué;1;BUREAU VERITAS 60, avenue du Général De Gaulle 92046 Paris La Défense;Le Guillaumet 92046 PARIS LA DEFENSE CEDEX (détail sur www.cofrac.fr programme n°4-4-11);;;;;H1
1378V8000005Q;FACTURE - DPE;25/07/2013;1982.51;G;64.55;E;Boulangerie;1948;154.00;78;NEAUPHLE-LE-CHATEAU;20, place du Marche;;;;;;78640;;1;Icert;Parc Edonia - Bât G Rue de la Terre Victoria 35760 SAINT GREGOIRE;1.899856;48.813612;20 Place du Marche 78640 Neauphle-le-Château;;H1
1375V8000067V;FACTURE;02/07/2013;640.01;G;20.83;C;\N;1900;34.27;75;PARIS;20 rue du Vertbois;\N;\N;\N;\N;\N;75003;1;1;AFAQ;11 rue Francis de Pressensé 93571 La Plaine Saint Denis;2.358949;48.866858;20 Rue du Vertbois 75003 Paris;M : Magasins de vente, centres commerciaux;H1
1375V8000068W;FACTURE;02/07/2013;2315.28;G;134.11;G;\N;1925;1085.73;75;PARIS;30 place de la Madeleine;\N;\N;\N;\N;\N;75008;5001-5002-5003-9001-9002-9003;1;GINGER CATED;12 av Gay Lussac ZAC La Clef St Pierre 78990 ELANCOURT;2.32555;48.870797;30 Place de la Madeleine 75008 Paris;M : Magasins de vente, centres commerciaux;H1
1393V8000015O;Méthode Facture;02/07/2013;486;F;15;C;Autres (théâtres, salles de sport, restaurati;1947;132.40;93;Aubervilliers;17, avenue de la République;;;rdc rue - gauche;;;93300;nc;1;Abcidia certification;4 route de la Noue 91190 GIF SUR YVETTE (détail sur www.cofrac.fr programme n°4-4-11);;;;;H1
1375V7000020J;3CL - DPE;17/06/2013;479.75;F;112.01;G;Commerce;1880;0.00;75;PARIS;de Rennes;127;;;RDC;;75006;;1;GINGER CATED;12 avenue Gay Lussac 78990 ELANCOURT;2.326853;48.846731;127 Rue de Rennes 75006 Paris;N : Restaurants et débits de boisson;H1
1375V6000006M;FACTURE;03/07/2013;1574.92;G;51.27;C;\N;1900;131.05;75;PARIS;71 rue des Archives;\N;\N;\N;\N;\N;75003;1 et 2;1;AFAQ;11 rue Francis de Pressensé 93571 La Plaine Saint Denis Cedex;2.359872;48.862742;71 Rue des Archives 75003 Paris;M : Magasins de vente, centres commerciaux;H1
1392V4000198V;Méthode Facture;01/07/2013;617;F;45;D;Bureau, Administration, Enseignement;1;2100.56;92;NEUILLY-SUR-SEINE;5/7, Rue Beffroy;;;;;;92200;Non communiqué;1;AFNOR Compétences;11 avenue Francis de Pressensé  93571 SAINT DENIS LA PLAINE CEDEX (détail sur www.cofrac.fr programme n°4-4-11);;;;W : Administrations, banques, bureaux;H1
1392XX000002Y;3CL - DPE;04/07/2013;682.13;G;22.21;C;Habitation (Parties privatives d'immeuble col;2000;0.00;92;CHÂTILLON;Saint Exupéry;8;;;RDC;;92320;1;1;BUREAU VERITAS CERTIFICATION;60 avenue du General de Gaulle 92046 Paris La defense;2.298422;48.808682;8 Avenue Saint-exupéry 92320 Châtillon;W : Administrations, banques, bureaux;H1
1391V8000021J;FACTURE - DPE;25/06/2013;438.34;F;14.27;C;Restaurant;1974;\N;91;MASSY;42, Place de France;;;;;;91300;;1;SQI  SOCOTEC;3, Avenue du Centre - Guyancourt - 78182 ST QUENTIN EN YVELINES Cedex;2.287786;48.732322;42 Place de France 91300 Massy;;H1
1392C2000003D;Méthode Facture;05/07/2013;360;F;11;B;Centres Commerciaux;1;1320.00;92;GENNEVILLIERS;7 allée des Barbanniers;;;;;;92230;Non communiqué;1;AFNOR Certification;11 avenue Francis de Pressensé  93571 SAINT DENIS LA PLAINE CEDEX (détail sur www.cofrac.fr programme n°4-4-11);;;;;H1
1391C2000005E;FACTURE - DPE;05/07/2013;1101.64;G;35.87;D;;1988;220.00;91;BRETIGNY-SUR-ORGE;12, rue du Poitou;;;;;;91220;;1;ABCIDIA;4, route de  la Noue Gif-sur-Yvette;2.299299;48.588185;12 Rue du Poitou 91220 Brétigny-sur-Orge;;H1
1391C1000001@;FACTURE - DPE;05/07/2013;734.42;G;23.91;C;;1988;330.00;91;BRETIGNY-SUR-ORGE;12, rue du Poitou;;;;;;91220;;1;ABCIDIA;4, route de  la Noue Gif-sur-Yvette;2.299299;48.588185;12 Rue du Poitou 91220 Brétigny-sur-Orge;;H1
1392V8000027Q;Méthode Facture;04/07/2013;617;G;20;C;Autres (théâtres, salles de sport, restaurati;1;110.00;92;SCEAUX;5/7 Avenue des QUATRE CHEMINS;;;LOCAL COMMERCIAL - RDC;;;92300;;1;Bureau Veritas;Le Guillaumet 92046 PARIS LA DEFENSE CEDEX (détail sur www.cofrac.fr programme n°4-4-11);;;;;H1
1377V7000003M;Méthode Facture;05/07/2013;844;G;27;D;Autres (théâtres, salles de sport, restaurati;1947;22.00;77;VILLEPARISIS;115. avenue Eugène Varlin;;;;;;77270;Non communiqué;1;Bureau Veritas Certification;Le Guillaumet 92046 PARIS LA DEFENSE CEDEX (détail sur www.cofrac.fr programme n°4-4-11);;;;;H1
1391V4000066O;FACTURE - DPE;05/07/2013;1137.97;G;37.05;D;bureaux;1948;\N;91;PALAISEAU;de la Gare;10;;;;;91120;;1;Bureau Veritas Certification;60, avenue du Général de Gaulle 92046 Paris La Défense;2.247358;48.717621;10 Rue de la Gare 91120 Palaiseau;;H1
1375V8000073S;3CL - DPE;05/07/2013;388.65;F;12.65;C;Commerce;1900;0.00;75;PARIS - 12EME;Traversière;24;;;RDC;;75012;;1;ABCIDIA CERTIFICATION;4, route de la Noue 91190 GIF-SUR-YVETTE;2.37269;48.847058;24 Rue Traversière 75012 Paris;N : Restaurants et débits de boisson;H1
1375V8000074T;Méthode Facture;05/07/2013;872;G;28;D;Autres (théâtres, salles de sport, restaurati;1947;55.00;75;PARIS 16;26, rue des Belles;;;Rez-de-chaussée sur rue;;;75016;Non communiqué;1;BUREAU VERITAS CERTIFICATION;Le Guillaumet 92046 PARIS LA DEFENSE CEDEX (détail sur www.cofrac.fr programme n°4-4-11);2.330287;48.792396;Rue de la Belle Image 94230 Cachan;;H1
1377V3000014K;FACTURE SEULE;05/07/2013;614.65;F;20.01;C;\N;1987;299.43;77;NOISIEL;des Roches;42;\N;\N;\N;\N;77186;\N;1;SGS;29 avenue Aristide Briand;2.615159;48.8441;42 Cours des Roches 77186 Noisiel;;H1
1377V7000005O;FACTURE SEULE;03/07/2013;579.14;G;43.12;D;\N;1969;700.00;77;0 CESSON;Charles Monnier;22;\N;\N;\N;\N;77 24;\N;1;BUREAU VERITAS Certification;60 Avenue du Général de Gaulle;2.605016;48.56287;22 Avenue Charles Monier 77240 Cesson;;H1
1378XX000002C;3CL - DPE;05/07/2013;2330.8;G;75.89;E;Bureaux;2000;0.00;78;BOIS-D'ARCY;Georges Méliès;1;\N;\N;Rez de chaussée;\N;78390;NC;1;GINGER CATED;;2.010559;48.800824;1 Rue Georges Méliès 78390 Bois-d'Arcy;W : Administrations, banques, bureaux;H1
1375V8000080Q;Méthode Facture;28/06/2013;853;G;27;D;Autres (théâtres, salles de sport, restaurati;1947;1438.80;75;PARIS;34 boulevard Saint-Michel et 5 rue Racine;;;Etage RDC;;;75006;;1;Bureau Veritas Certification - 60 avenue du Général de Gaulle - 92046 Paris La Défense;Le Guillaumet 92046 PARIS LA DEFENSE CEDEX (détail sur www.cofrac.fr programme n°4-4-11);2.415947;48.857335;Rue Edouard Vaillant 93170 Bagnolet;;H1
1375V2002024K;factures;09/07/2013;1484.07;G;48.32;E;;1900;\N;75;PARIS;1 rue de l'Amiral Roussin;;;;;;75015;;1;ABCIDIA certification;4 route de la Noue 91190 GIF-SUR-YVETTE;2.29889;48.845901;1 Rue de l'Amiral Roussin 75015 Paris;;H1
1391V8000024M;3CL - DPE;06/07/2013;726.07;G;50.05;E;Commerce;1986;0.00;91;MONTLHÉRY;de la ville du bois;13;\N;\N;\N;\N;91310;NC;1;AFNOR Certfication 11, Ave Francis DE PRESSENSE 93571 LA PLAINE ST DENIS Cedex;;2.275274;48.618658;Chemin de la Boissière 91310 Leuville-sur-Orge;N : Restaurants et débits de boisson;H1
1392V8000028R;Méthode Facture;09/07/2013;1345;G;43;D;Autres (théâtres, salles de sport, restaurati;1947;20.90;92;BOULOGNE-BILLANCOURT;98 Rue GALLIENI;;;Etage RDC;;;92100;4;1;BUREAU VERITAS;Le Guillaumet 92046 PARIS LA DEFENSE CEDEX (détail sur www.cofrac.fr programme n°4-4-11);;;;;H1
1392V8000029S;Méthode Facture;09/07/2013;1345;G;43;D;Autres (théâtres, salles de sport, restaurati;1947;20.90;92;BOULOGNE-BILLANCOURT;98 Rue GALLIENI;;;Etage RDC;;;92100;4;1;BUREAU VERITAS;Le Guillaumet 92046 PARIS LA DEFENSE CEDEX (détail sur www.cofrac.fr programme n°4-4-11);;;;;H1
1394V8000014O;FACTURE - DPE;04/07/2013;1772.62;G;57.71;E;Restaurant;1948;\N;94;MAISONS-ALFORT;54 AV GEORGES CLEMENCEAU;;;;;;94700;;1;DEKRA;5 AV GARLANDE 92220  BAGNEUX;2.443582;48.809649;54 Avenue Georges Clémenceau 94700 Maisons-Alfort;;H1
1378V4000076U;Méthode Facture;09/07/2013;736;F;23;C;Bureau, Administration, Enseignement;1947;214.12;78;VERSAILLES;57 bis rue de la paroisse;;;;;;78000;Non communiqué;1;CATED;;;;;;H1
1378V8000009U;3CL - DPE;09/07/2013;546.4;G;43.78;D;Commerce;1930;0.00;78;Poissy;Général de Gaulle;100;\N;\N;Rez de chaussée;\N;78300;NC;1;GINGER CATED;;2.042999;48.929084;100 Rue du Général de Gaulle 78300 Poissy;M : Magasins de vente, centres commerciaux;H1
1375V7000030K;FACTURE SEULE;10/07/2013;1963.51;G;77.33;F;\N;2008;1260.00;75;FONTENAY-SOUS-BOIS;DALAYRAC;90-94;\N;\N;\N;\N;94120;\N;1;I.Cert;Rue de la Terre Victoria;2.335201;48.867798;Rue Dalayrac 75002 Paris;;H1
1377V7000006P;FACTURE SEULE;10/07/2013;758.39;G;24.69;C;\N;1999;42.00;77;0 VAUX LE PENIL;du Ru de Vaux;2;\N;\N;\N;\N;77 00;\N;1;BUREAU VERITAS Certification;60 Avenue du Général de Gaulle;2.681888;48.525516;2 Rue du Ru de Vaux 77000 Vaux-le-Pénil;;H1
1375V8000083T;Méthode Facture;10/07/2013;437;F;14;C;Autres (théâtres, salles de sport, restaurati;1947;35.38;75;PARIS;30 RUE SAINT SAUVEUR;;;;;;75002;18;1;N°869 PAR GINGER CATED;12 avenue Gay Lussac ZAC LA CLEF ST PIERRE 78990 ELANCOURT (détail sur www.cofrac.fr programme n°4-4-11);2.279455;48.757985;Rue Saint Gervais 92160 Antony;;H1
1391V3000014G;FACTURE - DPE;10/07/2013;1115.93;G;174.72;G;restaurant asiatique;1974;\N;91;ATHIS-MONS;152 AVENUE FRANCOIS MITTERAND;;;;;;91200;;1;Ginger Cated;12 Avenue Gay Lussac 78990  Elancourt;2.371593;48.7082;152 Avenue Francois Mitterrand 91200 Athis-Mons;;H1
1395V7000010K;Méthode Facture;11/07/2013;729;G;23;C;Autres (théâtres, salles de sport, restaurati;1;61.97;95;MONTIGNY LES CORMEILLES;PLACE EUGENE DELACROIX;;;;;;95370;10;1;C0254 QUALIXPERT 17 RUE BOREL 81100 CASTRES;17 rue Borrel 81100 CASTRES (détail sur www.cofrac.fr programme n°4-4-11);;;;;H1
1395V7000011L;Méthode Facture;11/07/2013;572;G;18;C;Autres (théâtres, salles de sport, restaurati;1;179.11;95;MONTIGNY LES CORMEILLES;PLACE EUGENE DELACROIX;;;;;;95370;8 ET 9;1;C0254 QUALIXPERT 17 RUE BOREL 81100 CASTRES;17 rue Borrel 81100 CASTRES (détail sur www.cofrac.fr programme n°4-4-11);;;;;H1
1375V8000087X;Méthode Facture;11/07/2013;1040;G;33;D;Autres (théâtres, salles de sport, restaurati;1;267.89;75;PARIS;17, avenue d'Italie;;;Etage RDC;;;75013;1008, 1013, 1034, 293, 294;1;SGS;29 Avenue Aristide Briand 94111 ARCUEIL (détail sur www.cofrac.fr programme n°4-4-11);2.421278;48.935535;17 Avenue Baudoin 93350 Le Bourget;;H1
1375V7000033N;FACTURE;11/07/2013;536.95;G;15.34;C;\N;1920;66.00;75;PARIS;9 bis rue Georges Berger;\N;\N;\N;\N;\N;75017;;1;BUREAU VERITAS;n/c;2.310344;48.881334;9b Rue Georges Berger 75017 Paris;;H1
1395V7000012M;Méthode Facture;11/07/2013;545;G;17;C;Autres (théâtres, salles de sport, restaurati;1;177.10;95;MONTIGNY LES CORMEILLES;PLACE EUGENE DELACROIX;;;;;;95370;5 ET 6;1;C0254 QUALIXPERT 17 RUE BOREL 81100 CASTRES;17 rue Borrel 81100 CASTRES (détail sur www.cofrac.fr programme n°4-4-11);;;;;H1
1395V7000013N;Méthode Facture;11/07/2013;606;G;19;C;Autres (théâtres, salles de sport, restaurati;1;140.80;95;MONTIGNY LES CORMEILLES;PLACE EUGENE DELACROIX;;;;;;95370;3 ET 4;1;C0254 QUALIXPERT 17 RUE BOREL 81100 CASTRES;17 rue Borrel 81100 CASTRES (détail sur www.cofrac.fr programme n°4-4-11);;;;;H1
1394V4000128Q;FACTURE;11/07/2013;743.46;F;24.2;C;\N;1980;153.12;94;SAINT-MAUR-DES-FOSSES;12-14 Rue des Remises_2;\N;\N;\N;\N;\N;94100;;1;ICERT;n/c;2.472886;48.805744;Rue des Remises 94100 Saint-Maur-des-Fossés;;H1
1375V8000089@;Méthode Facture;11/07/2013;644;G;20;C;Autres (théâtres, salles de sport, restaurati;1947;679.80;75;PARIS;77 RUE DU FAUBOURG DU TEMPLE;;;;;;75010;2 - 31 - 38 - 40 - 42;1;C108 - QUALIXPERT 17 RUE BORREL 81100 CASTRES;17 rue Borrel 81100 CASTRES (détail sur www.cofrac.fr programme n°4-4-11);;;;;H1
1378V4000083S;FACTURE;12/07/2013;767.22;G;24.97;C;\N;1983;2636.70;78;MONTIGNY-LE-BRETONNEUX;13 Rue Faraday;\N;\N;\N;\N;\N;78180;;1;Bureau Veritas Certification;60 Avenue du Général De Gaulle - 92146 Paris la Défense;2.048922;48.796225;13 Rue Michael Faraday 78180 Montigny-le-Bretonneux;;H1
1375V8000096X;FACTURE;12/07/2013;586.36;G;19.09;C;\N;1880;68.20;75;PARIS;83 ue de l'Université;\N;\N;\N;\N;\N;75007;13;1;Afnor;11 rue Francis de Pressensé 93571;2.319239;48.860644;83 Rue de l'Université 75007 Paris;M : Magasins de vente, centres commerciaux;H1
1375XX000018G;3CL - DPE;05/07/2013;525.97;G;17.12;C;Commerce;1947;0.00;75;PARIS - 6EME;de Seine;53;;;RDC;;75006;3;1;ABCIDIA CERTIFICATION;4, route de la Noue 91190 GIF-SUR-YVETTE;2.336909;48.854859;53 Rue de Seine 75006 Paris;;H1
1375V7000035P;Méthode Facture;12/07/2013;529;G;17;C;Autres (théâtres, salles de sport, restaurati;1947;24.20;75;PARIS;30 RUE TIQUETONNE;;;;;;75002;;1;;;2.306707;48.736408;30 Rue des Chardonnerets 92160 Antony;;H1
1395V7000014O;FACTURE - DPE;12/07/2013;1466.1;G;47.73;E;;1982;220.00;95;HERBLAY;de Conflans;135;;;;;95220;;1;SOCOTEC CERTIFICATION;3 Avenue du Centre 78182 Saint Quentin en Yvelines Cedex;2.151876;48.998915;135 Rue de Conflans 95220 Herblay-sur-Seine;;H1
1395V8000031O;Méthode Facture;12/07/2013;398;F;119;G;Autres (théâtres, salles de sport, restaurati;1947;330.00;95;MONTSOULT;3 AVENUE FERNAND FOURCADE;;;;;;95560;Sans objet;1;C0121 QUALIXPERT - 17 RUE BORREL - 81100 CASTRES;17 rue Borrel 81100 CASTRES (détail sur www.cofrac.fr programme n°4-4-11);;;;;H1
1375V8000097Y;3CL - DPE;10/07/2013;1667.58;G;83.02;F;Commerce;1830;0.00;75;PARIS - 1ER;de Rivoli;\N;\N;\N;Rez de chaussée;\N;75001;3;1;Ginger Cated;;2.335861;48.862527;Rue de Rivoli 75001 Paris;N : Restaurants et débits de boisson;H1
0078V7000001H;FACTURE SEULE;31/12/2000;1077.84;G;99.44;G;\N;1969;50.00;78;CONFLANS SAINT HONORINE;DE LA REPUBLIQUE;5 quater;\N;\N;\N;\N;78700;\N;1;GINGER CATED;12, avenue Gay Lussac - ZAC la clef Saint Pierre;2.089122;48.991271;5 Quai de la République 78700 Conflans-Sainte-Honorine;;H1
1395V4000060M;FACTURE;12/07/2013;797.49;G;41.6;D;\N;1900;78.19;95;SARCELLES;93 RUE Pierre Brossolette;\N;\N;\N;\N;\N;95200;;1;ICERT;n/c;2.378173;48.993967;93 Rue Pierre Brossolette 95200 Sarcelles;;H1
1392V8000032M;FACTURE;12/07/2013;423.87;F;13.8;C;\N;1930;182.60;92;SURESNES;2 rue Berthelot;\N;\N;\N;\N;\N;92150;;1;AFAQ;11 rue Francis de Pressensé 93571 La Plaine Saint Denis Cedex;2.2271;48.870503;2 Rue Berthelot 92150 Suresnes;M : Magasins de vente, centres commerciaux;H1
1375V8000098@;FACTURE;12/07/2013;407.27;F;40.41;D;\N;1930;110.00;75;PARIS;1 rue Barye / 19 rue Médéric;\N;\N;\N;\N;\N;75017;;1;AFAQ;11 rue Francis de Pressensé 93571 La Plaine Saint Denis Cedex;2.302343;48.880228;1 Rue Médéric 75017 Paris;M : Magasins de vente, centres commerciaux;H1
1394V8000016Q;Méthode Facture;12/07/2013;431;F;100;G;Autres (théâtres, salles de sport, restaurati;1947;71.51;94;LA VARENNE-SAINT-HILAIRE;2 ter rue George Sand / 107 avenue du Bac;;;Etage RDC + Sous sol;;;94210;;1;BUREAU VERITAS;Le Guillaumet 92046 PARIS LA DEFENSE CEDEX (détail sur www.cofrac.fr programme n°4-4-11);;;;;H1
1393V7000014M;FACTURE SEULE;12/07/2013;909.8;G;29.62;D;\N;2004;140.00;93;LA PLAINE ST DENIS;des Cheminots;19-29;\N;\N;\N;\N;93218;\N;1;APAVE;75015 PARIS;;;;;H1
1394V3000009N;FACTURE SEULE;15/07/2013;690.03;F;83.07;E;\N;1969;300.00;94;SUCY EN BRIE;avenue de la Sablière;1;\N;\N;\N;\N;94370;\N;1;SOCOTEC Certification;3 avenue de CENTRE;2.506934;48.766507;3 Avenue de la Sablière 94370 Sucy-en-Brie;;H1
1375V8000100J;FACTURE;15/07/2013;428.61;F;27.5;D;\N;1970;197.59;75;PARIS;CC CASINO 13 PLACE DE VENETIE;\N;\N;\N;\N;\N;75013;;1;BUREAU VERITAS;n/c;2.365018;48.821585;13 Place de Vénétie 75013 Paris;;H1
1391V4000082M;FACTURE - DPE;20/06/2013;671.12;F;21.85;C;bureaux;1948;\N;91;MAROLLES-EN-HUREPOIX;Charles de Gaulle;3;;;;;91630;;1;GINGER CATED;12 avenue Gay Lussac Zac La Clef St Pierre  78990 Elancourt;2.297687;48.562653;3 Avenue Charles de Gaulle 91630 Marolles-en-Hurepoix;;H1
1375V8000102L;Méthode Facture;03/07/2013;1145;G;37;D;Autres (théâtres, salles de sport, restaurati;1947;20.98;75;PARIS;196 rue de Grenelle;;;Rez-de-chaussée, 1ère porte droite sur rue;;;75007;10;1;SGS Certification;29 Avenue Aristide Briand 94111 ARCUEIL (détail sur www.cofrac.fr programme n°4-4-11);2.303818;48.79759;Rue Adèle 92220 Bagneux;;H1
1394V8000018S;FACTURE - DPE;21/06/2013;585.59;G;137.03;G;Restaurant;1974;100.00;94;LA VARENNE SAINT HILAIRE;61 AVENUE BAC;;;;;;94210;;1;BUREAU VERITAS Certification France;60 Avenue du Général de Gaulle - 92046 Paris La Défense;;;;;H1
1378V8000010M;FACTURE;17/07/2013;888.84;G;195.32;G;\N;1966;61.60;78;HARDRICOURT;43 Boulevard Michelet;\N;\N;\N;\N;\N;78250;;1;Bureau Veritas Certification;60 Avenue du Général De Gaulle - 92146 Paris la Défense;;;;;H1
1375V7000037R;FACTURE SEULE;09/07/2013;1138.16;G;37.06;D;\N;1995;100.90;75;PARIS;André Lefebvre;11-15,;\N;\N;\N;\N;75015;\N;1;AFNOR CERTIFICATION;93571 LA PLAINE SAINT DENIS;2.277915;48.84262;15 Rue André Lefebvre 75015 Paris;;H1
1375V4000395V;Méthode Facture;16/07/2013;657;F;55;D;Bureau, Administration, Enseignement;1947;37.40;75;PARIS;119 bis, rue Cardinet;;;Local commercial  - rez de chaussée;;;75017;Non communiqué;1;Bureau Veritas 41 Chemin des Peupliers BP 58 69573 DARDILLY Cedex;Le Guillaumet 92046 PARIS LA DEFENSE CEDEX (détail sur www.cofrac.fr programme n°4-4-11);2.551277;48.805167;Rue Rodin 94500 Champigny-sur-Marne;;H1
1375V8000105O;3CL - DPE;16/07/2013;643.67;G;20.96;C;Local commercial;1900;0.00;75;PARIS - 8EME;RUE DU FAUBOURG SAINT HONORE;178;\N;\N;Rez de chaussée;\N;75008;NC;1;SOCOTEC;3 avneue de Centre - Guyancourt CS 20732  78182  SAINT QUENTIN EN YVELINES;2.307822;48.874173;178 Rue du Faubourg Saint-Honoré 75008 Paris;M : Magasins de vente, centres commerciaux;H1
1375V8000106P;Méthode Facture;17/07/2013;676;G;22;C;Autres (théâtres, salles de sport, restaurati;1947;31.90;75;PARIS;126, Avenue de Clichy;;;Etage RDC;;;75017;2 et 19;1;Qualixpert;17 rue Borrel 81100 CASTRES (détail sur www.cofrac.fr programme n°4-4-11);2.526472;48.812561;Avenue de Coeuilly 94500 Champigny-sur-Marne;;H1
1375V8000107Q;Méthode Facture;17/07/2013;423;F;17;C;Autres (théâtres, salles de sport, restaurati;1947;50.89;75;PARIS;18 rue Barbette;;;RDC Droite;;;75003;Non communiqué;1;GINGER CATED;12 avenue Gay Lussac ZAC LA CLEF ST PIERRE 78990 ELANCOURT (détail sur www.cofrac.fr programme n°4-4-11);2.330572;48.803834;18 Rue Berthollet 94110 Arcueil;;H1
1375V8000108R;Méthode Facture;17/07/2013;423;F;17;C;Autres (théâtres, salles de sport, restaurati;1947;50.89;75;PARIS;18 rue Barbette;;;RDC Droite;;;75003;Non communiqué;1;GINGER CATED;12 avenue Gay Lussac ZAC LA CLEF ST PIERRE 78990 ELANCOURT (détail sur www.cofrac.fr programme n°4-4-11);2.330572;48.803834;18 Rue Berthollet 94110 Arcueil;;H1
1375V8000109S;FACTURE;17/07/2013;1314.99;G;42.81;D;\N;1890;67.10;75;PARIS;173 rue Ordener;\N;\N;\N;\N;\N;75018;;1;Afnor;11 rue Francis de Pressensé 93571;2.337194;48.893417;173 Rue Ordener 75018 Paris;M : Magasins de vente, centres commerciaux;H1
1392V4000270M;Méthode Facture;17/07/2013;572;F;18;C;Bureau, Administration, Enseignement;1947;117.10;92;BOURG LA REINE;106 ave du Gal LECLERC;;;;;;92340;;1;;;;;;;H1
1375V8000110K;Méthode Facture;17/07/2013;453;F;14;C;Autres (théâtres, salles de sport, restaurati;1947;1394.80;75;PARIS;25 BOULEVARD DE BELLEVILLE;;;;;;75011;Non communiqué(s);1;QUALIXPERT 17 RUE BORREL 81100 CASTRESN° C 948;17 rue Borrel 81100 CASTRES (détail sur www.cofrac.fr programme n°4-4-11);;;;;H1
1375V8000111L;Méthode Facture;18/07/2013;443;F;14;C;Autres (théâtres, salles de sport, restaurati;1947;290.68;75;PARIS;35 BOULEVARD DE BELLEVILLE;;;;;;75011;Non communiqué(s);1;QUALIXPERT 17 RUE BORREL 81100 CASTRESN° C 948;17 rue Borrel 81100 CASTRES (détail sur www.cofrac.fr programme n°4-4-11);;;;;H1
1375XX000020@;3CL - DPE;17/07/2013;974.58;F;70.06;D;Habitation (Parties privatives d'immeuble col;1948;0.00;75;PARIS - 20EME;Gambetta,;117;;Sans objet;RDC;Sans objet;75020;1;1;DEKRA;5, avenue Garlande,  92220 BAGNEUX;2.400734;48.867702;117 Avenue Gambetta 75020 Paris;M : Magasins de vente, centres commerciaux;H1
1395V7000018S;3CL - DPE;18/07/2013;855;G;28;D;Commerce;2000;0.00;95;HERBLAY;ZAC DES COPISTES RN 14;\N;\N;\N;\N;\N;95220;\N;1;CESI;30 RUE CAMBRONNE 75015 PARIS;;;;;H1
1395V7000020L;3CL - DPE;18/07/2013;855;G;28;D;Commerce;2000;0.00;95;HERBLAY;ZAC DES COPISTES RN 14;\N;\N;\N;\N;\N;95220;\N;1;CESI;30 RUE CAMBRONNE 75015 PARIS;;;;;H1
1393V4000103I;FACTURE - DPE;28/06/2013;640.12;F;75.29;E;Industrie;1974;412.00;93;MONTFERMEIL;8 AVENUE MONTGOLFIER;;;;;;93370;;1;DEKRA;5 AVENUE GARLANDE  92220  BAGNEUX;2.583248;48.90393;8 Avenue Montgolfier 93370 Montfermeil;;H1
1392V8000034O;FACTURE;18/07/2013;1563.31;G;50.89;E;\N;2004;408.06;92;ISSY-LES-MOULINEAUX;40 AVENUE ARISTIDE BRIAND;\N;\N;\N;\N;\N;92130;;1;BUREAU VERITAS;le Guillaumet 92046 paris la défense cedex;2.25932;48.820936;40 Rue Aristide Briand 92130 Issy-les-Moulineaux;;H1
1377V3000023K;FACTURE SEULE;06/07/2013;541.05;F;17.62;C;\N;2001;50.85;77;roite;du Général Leclerc, 77330 OZOIR LA FERRIERE;18;\N;\N;\N;\N;RDC d;\N;1;SGS;29 avenue Aristide Briand;2.672935;48.7645;18 Avenue du General Leclerc 77330 Ozoir-la-Ferrière;;H1
1377V3000024L;FACTURE SEULE;06/07/2013;541.1;F;17.62;C;\N;2001;60.00;77;auche;du Général Leclerc, 77330 OZOIR LA FERRIERE;18;\N;\N;\N;\N;RDC g;\N;1;SGS;29 avenue Aristide Briand;2.672935;48.7645;18 Avenue du General Leclerc 77330 Ozoir-la-Ferrière;;H1
1393V8000022M;Méthode Facture;18/07/2013;486;F;15;C;Autres (théâtres, salles de sport, restaurati;1;141.75;93;BONDY;59 rue Jules Guesde;;;;;;93140;Non communiqué;1;BUREAU VERITAS 60, av.du Gal de Gaulle 92046 Paris La Défense;Immeuble Le Guillaumet - 60 Avenue du Général de Gaulle - 92800 PUTEAUX (détail sur www.cofrac.fr programme n°4-4-11);;;;;H1
1392C1000002B;Méthode Facture;19/07/2013;345;F;33;D;Centres Commerciaux;1947;88.00;92;GARCHES;3 avenue Joffres;;;;;;92380;Non communiqué;1;Bureau Veritas;Le Guillaumet 92046 PARIS LA DEFENSE CEDEX (détail sur www.cofrac.fr programme n°4-4-11);;;;;H1
1375XX000024D;3CL - DPE;19/07/2013;1390.17;G;156.35;G;Commerce;1947;0.00;75;PARIS - 9EME;Ballu;34;;;RDC et Sous-Sol;;75009;;1;ABCIDIA CERTIFICATION;4, route de la Noue 91190 GIF-SUR-YVETTE;2.329133;48.882182;34 Rue Ballu 75009 Paris;;H1
1391V8000026O;FACTURE - DPE;19/07/2013;1937.38;G;63.08;E;Boucherie;1988;198.00;91;PARAY-VIEILLE-POSTE;2 Avenue Jean jaurès;;;;;;91550;;1;SOCOTEC CERTIFICATION;89/93 Avenue Paul Vaillant Couturier 94250 GENTILLY;2.363466;48.705842;2 Avenue Jean Jaurès 91550 Paray-Vieille-Poste;;H1
1392V8000036Q;FACTURE;19/07/2013;1170;G;273.78;G;\N;1920;77.00;92;LEVALLOIS-PERRET;42 AVENUE GABRIEL PÉRI;\N;\N;\N;\N;\N;92300;;1;SOCOTEC CERTIFICATION;3 AVENUE DU CENTRE GUYANCOURT 78182 SAINT QUENTIN EN YVELINES;2.288073;48.891781;42 Rue Gabriel Péri 92300 Levallois-Perret;M : Magasins de vente, centres commerciaux;H1
1375V7000040L;FACTURE SEULE;09/07/2013;861.61;G;28.05;D;\N;1990;109.40;75;PARIS;André Lefebvre;11-15,;\N;\N;\N;\N;75015;\N;1;AFNOR Certification;93571 LA PLAINE SAINT DENIS CEDEX;2.277915;48.84262;15 Rue André Lefebvre 75015 Paris;;H1
1378V4000102K;Méthode Facture;17/07/2013;815;G;26;C;Bureau, Administration, Enseignement;1;18700.00;78;MONTIGNY LE BRETONNEUX;ESPACE MONTIGNY IMMEUBLE THEMIS 1 RUE JEAN PIERRE TIMBAUD;;;;;;78060;;1;BUREAU VERITAS;Immeuble Le Guillaumet - 60 Avenue du Général de Gaulle - 92800 PUTEAUX (détail sur www.cofrac.fr programme n°4-4-11);;;;;H1
1375P6000001B;3CL - DPE;21/07/2013;750.54;G;24.44;C;Commerce;1948;0.00;75;Paris - 13eme;de BOBILLOT;45;\N;\N;Rez de chaussée;\N;75013;13 et 14;1;CERTIFI;;2.152689;48.790808;45 Rue de l’Etang 78000 Versailles;N : Restaurants et débits de boisson;H1
1393V8000033O;Méthode Facture;19/07/2013;641;G;20;C;Autres (théâtres, salles de sport, restaurati;1;6336.00;93;SAINT-DENIS;144 avenue du Président wilson;;;Bât. A;;;93210;;1;SGS Certification;29 Avenue Aristide Briand 94111 ARCUEIL (détail sur www.cofrac.fr programme n°4-4-11);2.356665;48.9290876;Avenue du Président Wilson (Pont) Saint-Denis;;H1
1394V8000021M;Méthode Facture;19/07/2013;565;G;18;C;Autres (théâtres, salles de sport, restaurati;1947;55.00;94;SAINT-MAUR-DES-FOSSÉS;102, Boulevard de Créteil;;;BOUTIQUE sur RUE;;;94100;RDC Porte D;1;AFNOR Compétences;11 avenue Francis de Pressensé  93571 SAINT DENIS LA PLAINE CEDEX (détail sur www.cofrac.fr programme n°4-4-11);;;;;H1
1375V8000113N;Méthode Facture;22/07/2013;528;G;17;C;Autres (théâtres, salles de sport, restaurati;1947;85.82;75;Paris;25, rue de la Chapelle;;;Bât B- E;;;75018;"51; 322";1;Abcidia certification;4 route de la Noue 91190 GIF SUR YVETTE (détail sur www.cofrac.fr programme n°4-4-11);2.417634;48.82278;25 Rue de la Republique 94220 Charenton-le-Pont;;H1
1393V8000041N;Méthode Facture;22/07/2013;486;F;15;C;Autres (théâtres, salles de sport, restaurati;1;141.75;93;BONDY;59 rue Jules Guesde;;;;;;93140;Non communiqué;1;BUREAU VERITAS 60, av.du Gal de Gaulle 92046 Paris La Défense;Immeuble Le Guillaumet - 60 Avenue du Général de Gaulle - 92800 PUTEAUX (détail sur www.cofrac.fr programme n°4-4-11);;;;;H1
1375V8000114O;FACTURE;22/07/2013;488.57;F;15.9;C;\N;1900;122.10;75;PARIS;128 boulevard Voltaire;\N;\N;\N;\N;\N;75014;28;1;AFAQ;11 rue Francis de Pressensé 93571 La Plaine Saint Denis;2.378905;48.858332;128 Boulevard Voltaire 75011 Paris;M : Magasins de vente, centres commerciaux;H1
1394XX000014D;3CL - DPE;19/07/2013;1642.33;G;197.79;G;Commerce;1970;0.00;94;VILLEJUIF;Paul Vaillant Couturier;53;;;RDC + s/sol;;94800;;1;GINGER CATED;12 avenue Gay Lussac 78990 ELANCOURT;2.360702;48.794553;53 Avenue Paul Vaillant-couturier 94800 Villejuif;N : Restaurants et débits de boisson;H1
1395XX000002B;3CL - DPE;09/07/2013;527.03;G;48.4;E;Commerce;1950;0.00;95;BEZONS;, Nicolas Louet;6;;;;;95870;;1;ICERT;Parc EDONIA - Bâtiment G Rue de la Terre Victoria 35760 ST GREGOIRE;2.209162;48.930665;6 Rue Nicolas Louet 95870 Bezons;W : Administrations, banques, bureaux;H1
1375V8000117R;FACTURE;22/07/2013;394.35;F;34.2;D;\N;1850;52.80;75;PARIS;187 rue Saint Denis;\N;\N;\N;\N;\N;75002;1;1;Afnor;11 rue Francis de Pressensé 93571;2.350723;48.866075;187 Rue Saint-Denis 75002 Paris;M : Magasins de vente, centres commerciaux;H1
1394V4000150L;FACTURE - DPE;22/07/2013;2490.48;G;81.09;E;Commerce;1948;31.50;94;MAISONS-ALFORT;1 RUE PELET DE LA LOZERE;;;;;;94700;;1;DEKRA;5 AV GARLANDE 92220  BAGNEUX;2.432756;48.797934;1 Rue Pelet de la Lozère 94700 Maisons-Alfort;;H1
1394V4000151M;FACTURE - DPE;22/07/2013;2490.48;G;81.09;E;Commerce;1948;31.50;94;MAISONS-ALFORT;1 RUE PELET DE LA LOZERE;;;;;;94700;;1;DEKRA;5 AV GARLANDE 92220  BAGNEUX;2.432756;48.797934;1 Rue Pelet de la Lozère 94700 Maisons-Alfort;;H1
1375V8000119T;FACTURE;23/07/2013;408.42;F;13.29;C;\N;1900;232.10;75;PARIS;1 RUE CASSETTE;\N;\N;\N;\N;\N;75006;;1;BUREAU VERITAS;n/c;2.330825;48.85094;1 Rue Cassette 75006 Paris;;H1
1375V4000447T;FACTURE;23/07/2013;563.59;F;18.34;C;\N;1900;58.30;75;PARIS;47 rue des Mathurins;\N;\N;\N;\N;\N;75008;1005;1;AFNOR Certification;11 rue Francis de Pressensé - 93571 LA PLAINE ST DENIS CEDEX;2.323391;48.873312;47 Rue des Mathurins 75008 Paris;W : Administrations, banques, bureaux;H1
1375V8000120L;Méthode Facture;23/07/2013;453;F;14;C;Autres (théâtres, salles de sport, restaurati;1947;66.78;75;PARIS 11;20, rue Saint-Ambroise;;;Local commercial RDC sur rue;;;75011;Non communiqué;1;Bureau Veritas;Le Guillaumet 92046 PARIS LA DEFENSE CEDEX (détail sur www.cofrac.fr programme n°4-4-11);2.484883;48.772655;20 Rue Montaigne 94380 Bonneuil-sur-Marne;;H1
1394V8000023O;Méthode Facture;23/07/2013;772;G;25;C;Autres (théâtres, salles de sport, restaurati;1947;56.10;94;GENTILLY;35 AVENUE PAUL VAILLANT COUTURIER;;;;;;94250;Sans objet;1;2354130 DELIVREE PAR BUREAU VERITAS 41 CHEMIN DES PEUPLIERS - BP 58 - 69573 DARDILLY CEDEX;Immeuble Le Guillaumet - 60 Avenue du Général de Gaulle - 92800 PUTEAUX (détail sur www.cofrac.fr programme n°4-4-11);2.5336756;48.9581432;Avenue Paul Vaillant Couturier (Pont) Villepinte;;H1
1375V3000065O;FACTURE SEULE;23/07/2013;705.4;F;36.5;D;\N;1990;1615.81;75;GUIBEVILLE;Thomas EDISON;3;\N;\N;\N;\N;91630;\N;1;I.Cert;Rue de la terre Victoria;2.275842;48.569162;3 Rue Thomas Edison 91630 Guibeville;;H1
1377XX000013D;3CL - DPE;16/07/2013;402.17;F;13.09;C;;1987;0.00;77;PONTAULT-COMBAULT;Charles Rouxel;13;;;RDC/1er;;77340;NC;1;SGS ICS;29 avenue Aristide Briand 94211 ARCEUIL CEDEX;2.605032;48.797676;13 Avenue Charles Rouxel 77340 Pontault-Combault;M : Magasins de vente, centres commerciaux;H1
1395V8000035S;3CL - DPE;24/07/2013;587;G;44;D;Commerce;1974;78.00;95;PERSAN;JEAN JAURES;12;\N;\N;Rez de chaussee;\N;95340;\N;1;BUREAU VERITAS CERTIFICATION;ADRESSE ORGANISME CERTIFICATEUR;2.284087;49.146705;12 Avenue Jean Jaures 95340 Persan;;H1
1375V8000129U;FACTURE;24/07/2013;627.36;G;20.42;C;\N;1900;30.55;75;PARIS;44 avenue des Ternes - maroquinerie;\N;\N;\N;\N;\N;75017;;1;ICERT;n/c;2.292737;48.879165;44 Avenue des Ternes 75017 Paris;;H1
1391V4000095Q;Méthode Facture;25/07/2013;1012;G;32;D;Bureau, Administration, Enseignement;1;68.20;91;EPINAY SUR ORGE;86 grande rue;;;;;;91360;;1;;;;;;;H1
1392V8000039T;3CL - DPE;25/07/2013;973.44;G;73.42;F;Commerce;1930;0.00;92;SURESNES;de Verdun;135;\N;\N;\N;\N;92150;NC;1;AFAQ;;2.233399;48.877181;135 Rue de Verdun 92150 Suresnes;N : Restaurants et débits de boisson;H1
1394V8000024P;FACTURE;25/07/2013;385.01;F;36.54;D;\N;1950;99.00;94;CHARENTON-LE-PONT;109 rue de Paris;\N;\N;\N;\N;\N;94220;33;1;Afnor;11 rue Francis de Pressensé 93571;2.410151;48.823622;109 Rue de Paris 94220 Charenton-le-Pont;M : Magasins de vente, centres commerciaux;H1
1394V8000025Q;FACTURE;25/07/2013;547.48;G;47;E;\N;1920;33.00;94;NOGENT-SUR-MARNE;95 grande rue Charles de Gaulle;\N;\N;\N;\N;\N;94130;;1;Afnor;11 rue Francis de Pressensé 93571;2.484262;48.837139;95 Grande Rue Charles de Gaulle 94130 Nogent-sur-Marne;M : Magasins de vente, centres commerciaux;H1
1377V3000025M;Méthode Facture;25/07/2013;578;F;18;C;Bureau, Administration, Enseignement;1947;37.40;77;MITRY-MORY;34,rue Octave Mirbeau;;;;;;77290;Non communiqué;1;Bureau Veritas Certification;Le Guillaumet 92046 PARIS LA DEFENSE CEDEX (détail sur www.cofrac.fr programme n°4-4-11);;;;;H1
1393XX000008F;3CL - DPE;25/07/2013;716.38;F;23.32;C;Bureaux;2005;0.00;93;MONTREUIL;Simone de Beauvoir;6;Sans objet;Sans objet;r+3;Sans objet;93100;Non communiqué;1;Icert;rue de la Terre Victoria - Parc EDONIA - Bât. G 35760 SAINT-GRÉGOIRE;2.42704;48.849769;6 Rue Simone de Beauvoir 93100 Montreuil;GHW : Bureaux;H1
1375V8000134Q;FACTURE;25/07/2013;1552.86;G;195.06;G;\N;1900;128.70;75;PARIS;35 avenue de Clichy;\N;\N;\N;\N;\N;75017;1;1;I.Cert;Parc EDONIA - Bât G - Rue de la Terre Victoria - 35760 SAINT-GREGOIRE;2.326035;48.886137;35 Avenue de Clichy 75017 Paris;M : Magasins de vente, centres commerciaux;H1
1393V8000043P;FACTURE - DPE;25/07/2013;546.15;G;17.78;C;Restauration;1948;70.00;93;DRANCY;73 RUE JULIAN GRIMAU;;;;;;93700;;1;CATED;12 AVENUE GAY LUSSAC - ZAC LA CLEF SAINT PIERRE  78990 ELANCOURT;2.421517;48.923731;73 Rue Julian Grimau 93700 Drancy;;H1
1378V7000014P;FACTURE SEULE;26/07/2013;741.15;G;60.17;E;\N;1969;175.00;78;Mantes la jolie;Adresse du bien immobilier, 16,Avenue de la République;;\N;\N;\N;\N;78200;\N;1;GINGER CATED;12, avenue Gay Lussac - ZAC la clef Saint Pierre;1.713301;48.989698;16 Avenue de la République 78200 Mantes-la-Jolie;;H1
1375V8000139V;Méthode Facture;26/07/2013;487;F;15;C;Autres (théâtres, salles de sport, restaurati;1947;41.54;75;PARIS 11;4, rue Sedaine;;;Local commercial RDC sur rue;;;75011;Non communiqué;1;Bureau Veritas;Le Guillaumet 92046 PARIS LA DEFENSE CEDEX (détail sur www.cofrac.fr programme n°4-4-11);2.485637;48.771915;4 Rue Montaigne 94380 Bonneuil-sur-Marne;;H1
1391V7000010G;FACTURE SEULE;24/07/2013;648.83;G;21.12;C;\N;1969;71.00;91;JUVISY SUR ORGE;d'Estinne d'Orves;72,;\N;\N;\N;\N;91260;\N;1;Institut de Certification ICERT;Parc Edonia - Bâtiment G Rue de la Terre Victoria 35760 Saint-Grégoire;2.376128;48.692255;72 Avenue d’Estienne d’Orves 91260 Juvisy-sur-Orge;;H1
1375XX000029I;3CL - DPE;16/07/2013;792.2;G;25.79;C;Bureaux;1928;0.00;75;PARIS - 15EME;de Vaugirard;165;;;2ème - 3ème et 4ème;;75015;;1;ABCIDIA CERTIFICATION;4, route de la Noue 91190 GIF-SUR-YVETTE;2.314724;48.843498;165 Rue de Vaugirard 75015 Paris;;H1
1377V8000014P;Méthode Facture;26/07/2013;482;F;15;C;Autres (théâtres, salles de sport, restaurati;1;82.50;77;CHELLES;1, av. du Docteur Blanchet;;;;;;77490;;1;;;;;;;H1
1394V4000171O;FACTURE - DPE;27/07/2013;1182.21;G;38.49;D;Commerce;1948;\N;94;SAINT-MANDE;Joffre;10;;;;;94160;;1;DEKRA;5 avenue Garlande 92220 BAGNEUX;2.417763;48.847705;10 Avenue Joffre 94160 Saint-Mandé;;H1
1375V5000006L;Facture;25/06/2013;1097;F;35;D;bâtiments à occupation continue;1960;0.00;75;PARIS;154 AVENUE DE FLANDRE;;;;;;75019;;1;qualixpert;17 rue Borrel 81100 Castres;2.381694;48.894165;154 Avenue de Flandre 75019 Paris;N : Restaurants et débits de boisson;H1
1375XX000030A;3CL - DPE;25/07/2013;1271.5;G;41.4;D;Commerce;1899;0.00;75;PARIS - 16EME;de Longchamp;33;;;RDC + Sous-Sol;;75016;4;1;ABCIDIA CERTIFICATION;4, route de la Noue 91190 GIF-SUR-YVETTE;2.289674;48.864936;33 Rue de Longchamp 75016 Paris;;H1
1392V3000031G;3CL - DPE;29/07/2013;711;F;23;C;Habitation (parties privatives d immeuble col;1974;0.00;92;ASNIERES SUR SEINE;DU REVEREND PERE CHRISTIAN GILBERT;3;\N;\N;Rez de chaussee;\N;92600;103;1;DEKRA CERTIFICATION;5 AVENUE GARLANDE 92220 BAGNEUX;2.290388;48.911102;3 Rue du Reverend Pere C Gilbert 92600 Asnières-sur-Seine;;H1
1375V8000143Q;Méthode Facture;29/07/2013;506;F;16;C;Autres (théâtres, salles de sport, restaurati;1947;440.00;75;PARIS;34 boulevard Barbès;;;;;;75018;;1;;;;;;;H1
1377V8000015Q;3CL - DPE;29/07/2013;430.27;F;14.01;C;Bureaux;1985;0.00;77;LOGNES;Lech Walesa -  Villa du Parc;\N;\N;\N;1er étage;\N;77185;Non communiqué;1;ICERT;Parc EDONIA - Bât G rue de la Terre Victoria 35760 SAINT-GRÉGOIRE;2.626276;48.826111;Allee Lech Walesa 77185 Lognes;;H1
1375V8000144R;Méthode Facture;29/07/2013;1060;G;153;G;Autres (théâtres, salles de sport, restaurati;1947;121.00;75;PARIS;23 rue Guillaume Tell;;;rez-de-chaussée et sous-sol;;;75017;lots numéros 3, 4, 16 et 17;1;QUALIXPERT;17 rue Borrel 81100 CASTRES (détail sur www.cofrac.fr programme n°4-4-11);;;;;H1
1375P1000002X;FACTURE - DPE;29/07/2013;968.53;G;31.53;D;;1948;\N;75;PARIS;152 AVE DES CHAMPS ELYSÉES;;;;;;75008;;1;GInger Cated;12 Ave Gay Lussac, ZAC LA Clef St Pierre  78990  Elancourt;2.29781;48.873259;152 Avenue des Champs Elysées 75008 Paris;;H1
1391V8000030J;FACTURE;30/07/2013;602.27;G;19.6;C;\N;1990;1434.40;91;SAINTE-GENEVIÈVE-DES-BOIS;19 Avenue de la croix blanche;\N;\N;\N;\N;\N;91700;;1;BV certifcation;5 chemin du jubin 69574 DARDILLY CEDEX;2.351314;48.622515;La Remise de la Crx Blanch 91700 Fleury-Mérogis;M : Magasins de vente, centres commerciaux;H1
1375C1000009J;FACTURE SEULE;27/06/2013;475.63;G;30.48;D;\N;1969;267.00;75;SILLINGY;Entr. SOARES, ZAE des Bromines - Route des perdrix;;\N;\N;\N;\N;74330;\N;1;APAVE Certification;191 rue de Vaugirard, 75 738 PARIS Cedex 15;;;;;H1
1375C1000010B;FACTURE SEULE;27/06/2013;479.96;G;30.95;D;\N;1969;392.00;75;SILLINGY;Entr. SOARES, ZAE des Bromines - Route des Bauches;;\N;\N;\N;\N;74330;\N;1;APAVE Certification;191 rue de Vaugirard, 75 738 PARIS Cedex 15;;;;;H1
1392V8000041M;3CL - DPE;30/07/2013;389.56;F;12.68;C;Industrie;1985;0.00;92;GENNEVILLIERS;Flugence Bienvenue;3;\N;\N;R+1;\N;92230;Non communiqué;1;ICERT;Parc EDONIA - Bât G rue de la Terre Victoria 35760 SAINT-GRÉGOIRE;2.264879;48.936313;3 Route Fulgence Bienvenue 92230 Gennevilliers;;H1
1378V8000013P;3CL - DPE;30/07/2013;953;G;109;G;Local commercial;1974;0.00;78;MEULAN-EN-YVELINES;MARECHAL FOCH;65;\N;\N;Rez de chaussee;\N;78250;01;1;SOCOTEC CERTIFICATION;89/93 AVENUE PAUL VAILLANT COUTURIER 94250 GENTILLY;1.90743;49.005515;65 Rue du Marechal Foch 78250 Meulan-en-Yvelines;;H1
1393V7000020J;FACTURE - DPE;30/07/2013;814.99;G;56.12;E;Restaurant;2006;\N;93;ROSNY-SOUS-BOIS;7/11 ALLEE GABRIEL ZIRNHELT;;;;;;93110;;1;CATED;12 AVENUE GAY LUSSAC  78990 ELANCOURT;2.478616;48.878277;Allée Gabriel Zirnhelt 93110 Rosny-sous-Bois;;H1
1395V3000008N;Méthode Facture;31/07/2013;639;F;45;D;Bureau, Administration, Enseignement;1;660.00;95;ARGENTEUIL;29 rue GODE;;;;;;95100;;1;;;;;;;H1
1393V8000045R;Méthode Facture;26/07/2013;428;F;128;G;Autres (théâtres, salles de sport, restaurati;1947;348.70;93;BOBIGNY;32, rue Edouard Vaillant;;;Ce bien ne fait pas partie d'une copropriété;;;93000;;1;Bureau Véritas Certification;Immeuble Le Guillaumet - 60 Avenue du Général de Gaulle - 92800 PUTEAUX (détail sur www.cofrac.fr programme n°4-4-11);;;;;H1
1378V4000129T;FACTURE;31/07/2013;566.66;F;169.99;G;\N;1970;20.02;78;SAINT-GERMAIN-EN-LAYE;26 rue Jean Jaurès partie locative de commerce;\N;\N;\N;\N;\N;78100;;1;GINGER CATED;12 av Gay Lussac 78990 Elancourt;;;;M : Magasins de vente, centres commerciaux;H1
1375V8000155T;FACTURE - DPE;31/07/2013;384.81;F;89.9;F;Restaurant;1974;\N;75;PARIS;3 AVENUE DE CHOISY;;;;;;75013;;1;BUREAU VERITAS Certification France;60 Avenue du Général de Gaulle - 92046 Paris La Défense;2.364253;48.82034;3 Avenue de Choisy 75013 Paris;;H1
1375V8000156U;Méthode Facture;31/07/2013;412;F;13;C;Autres (théâtres, salles de sport, restaurati;1947;55.00;75;PARIS 13;47, Bd Arago;;;Local commercial RDC sur rue;;;75013;;1;Bureau Veritas;Le Guillaumet 92046 PARIS LA DEFENSE CEDEX (détail sur www.cofrac.fr programme n°4-4-11);;;;;H1
1391V7000015L;FACTURE SEULE;28/05/2013;423.28;F;99.05;G;\N;1969;63.00;91;EPINAY SUR ORGE;de Corbeil;51,;\N;\N;\N;\N;91360;\N;1;Institut de Certification ICERT;ICERT Parc Edonia - Bâtiment G Rue de la Terre Victoria 35760 Saint-Grégoire;2.332935;48.667632;51 Rue de Corbeil 91360 Épinay-sur-Orge;;H1
1391V8000032L;3CL - DPE;31/07/2013;797.31;G;99.1;G;Commerce;1900;0.00;91;ARPAJON;Jean Jaurès;20;\N;\N;Rez de chaussée;\N;91290;NC;1;AFNOR Certfication 11, Ave Francis DE PRESSENSE 93571 LA PLAINE ST DENIS Cedex;;2.245827;48.58778;20 Boulevard Jean Jaures 91290 Arpajon;N : Restaurants et débits de boisson;H1
1375V8000157V;3CL - DPE;26/07/2013;961.33;G;78.65;F;Commerce;1930;0.00;75;PARIS - 15EME;du théatre;60;\N;\N;Rez de chaussée;\N;75015;NC;1;Ginger Cated;;2.289908;48.848128;60 Rue du Théâtre 75015 Paris;N : Restaurants et débits de boisson;H1
1375V8000159X;FACTURE;02/08/2013;778.43;G;25.34;C;\N;1900;60.50;75;PARIS;48 rue de la Folie Mericourt;\N;\N;\N;\N;\N;75011;29;1;AFAQ;11 rue Francis de Pressensé 93571 La Plaine Saint Denis;2.37219;48.863838;48 Rue de la Folie-Méricourt 75011 Paris;M : Magasins de vente, centres commerciaux;H1
1375V8000160P;FACTURE;02/08/2013;421.93;F;13.73;C;\N;1900;52.91;75;PARIS;113 bis rue de la Roquette;\N;\N;\N;\N;\N;75011;;1;AFAQ;11 rue Francis de Pressensé 93571 La Plaine Saint Denis;2.381333;48.858035;113b Rue de la Roquette 75011 Paris;M : Magasins de vente, centres commerciaux;H1
1377V4000064Q;3CL - DPE;02/08/2013;637.04;F;58.03;D;Industrie;1992;0.00;77;MITRY-MORY;Fernand Forrest;\N;-;-;-;-;77290;-;1;GINGER CATED;;2.635021;48.977775;Rue Fernand Forest 77290 Mitry-Mory;;H1
1378V8000016S;FACTURE;02/08/2013;835.16;G;27.19;D;\N;1900;64.52;78;MANTES-LA-JOLIE;9 RUE BAUDIN;\N;\N;\N;\N;\N;78200;0001;1;SOCOTEC;Les Quadrants - 3 avenue de Centre - Guyancourt - CS 20732 6  78182  Saint - Quentin - en - Yvelines Cedex;1.647985;48.919662;Rue des Bineaux 78200 Boinvilliers;M : Magasins de vente, centres commerciaux;H1
1393XX000009G;3CL - DPE;29/07/2013;1415.42;G;46.08;E;Habitation (Parties communes);2000;0.00;93;BONDY;1-3 RUE ROGER SALENGRO;\N;;;RDC;;93140;;1;DEKRA CERTIFICATION;5, avenue Garlande 92220 BAGNEUX;2.480249;48.90267;3 Rue Roger Salengro 93140 Bondy;M : Magasins de vente, centres commerciaux;H1
1377V7000013N;FACTURE SEULE;24/06/2013;943.96;G;30.73;D;\N;1948;157.60;77;CHAUMES EN BRIE;Couperin;3;\N;\N;\N;\N;77390;\N;1;SGS;29 avenue Aristide Briand, 94211 ARCEUIL CEDEX;2.842334;48.665328;3 Rue Couperin 77390 Chaumes-en-Brie;;H1
1377V7000016Q;FACTURE SEULE;28/06/2013;528.49;G;17.21;C;\N;1948;83.00;77;THORIGNY SUR MARNE;de la Marne;9 quater;\N;\N;\N;\N;77400;\N;1;SGS;29 avenue Aristide Briand, 94211 ARCEUIL CEDEX;2.705108;48.881063;9 Quai de Marne 77400 Thorigny-sur-Marne;;H1
1391V7000016M;Méthode Facture;02/08/2013;457;F;14;C;Autres (théâtres, salles de sport, restaurati;1;82.50;91;VILLEBON SUR YVETTE;8 RUE LAS ROSAS DE MADRID;;;;;;91140;Sans objet;1;C1674 QUALIXPERT 17 RUE BOREL 81100 CASTRES;17 rue Borrel 81100 CASTRES (détail sur www.cofrac.fr programme n°4-4-11);;;;;H1
1375V8000161Q;Méthode Facture;03/08/2013;1122;G;36;D;Autres (théâtres, salles de sport, restaurati;1947;50.60;75;PARIS 20EME ARRONDISSEMENT;216 RUE DES PYRENEES;;;;;;75020;Non communiqué(s);1;C 112 PAR QUALIXPERT 17 RUE BORREL 81100 CASTRES;17 rue Borrel 81100 CASTRES (détail sur www.cofrac.fr programme n°4-4-11);2.290827;48.797288;Rue des Pierrettes 92320 Châtillon;;H1
1375V7000053P;3CL - DPE;24/07/2013;455.95;F;71.98;F;Commerce;1890;0.00;75;PARIS - 7EME;Jean NICOT;4;;;Sous-Sol / RDC;;75007;;1;GINGER CATED;12 avenue Gay Lussac 78990 ELANCOURT;2.306382;48.862009;4 Rue Jean Nicot 75007 Paris;W : Administrations, banques, bureaux;H1
1375V7000054Q;3CL - DPE;03/08/2013;434.15;F;71.27;F;Commerce;1890;0.00;75;PARIS - 7EME;Jean NICOT;4;;;1er;;75007;;1;GINGER CATED;12 avenue Gay Lussac 78990 ELANCOURT;2.306382;48.862009;4 Rue Jean Nicot 75007 Paris;W : Administrations, banques, bureaux;H1
1391C2000006F;Méthode Facture;05/08/2013;593;G;19;C;Centres Commerciaux;1947;49.64;91;ST MICHEL SUR ORGE;Local tabac-presse - CC Le Bois des Roches - 1 place Puttlingen;;;;;;91240;;1;AFNOR CERTIFICATION;11 avenue Francis de Pressensé  93571 SAINT DENIS LA PLAINE CEDEX (détail sur www.cofrac.fr programme n°4-4-11);;;;;H1
1375V7000055R;3CL - DPE;05/08/2013;395;F;31;D;Commerce;1974;0.00;75;PARIS;JEAN JAURES;176;RUE;\N;Rez de chaussee;\N;75019;\N;1;BUREAU VERITAS;60 AVENUE DU GLE DE GAULLE - 92 46 LA DEFENSE;;;;;H1
1391V8000036P;Méthode Facture;05/08/2013;385;F;12;C;Autres (théâtres, salles de sport, restaurati;1947;99.00;91;ARPAJON;37, rue de la Libération;;;RDC;;;91290;Non communiqué;1;BUREAU VERITAS;Immeuble Le Guillaumet - 60 Avenue du Général de Gaulle - 92800 PUTEAUX (détail sur www.cofrac.fr programme n°4-4-11);;;;;H1
1395L1000208M;Méthode 3CL;06/08/2013;459;G;28;D;\N;1948;75.00;95;PONTOISE;6 RUE SERE DEPOIN;;;;;;95300;Sans objet;1;C0121 QUALIXPERT - 17 RUE BORREL - 81100 CASTRES;17 rue Borrel 81100 CASTRES (détail sur www.cofrac.fr programme n°4-4-11);;;;;H1
1375V7000060N;3CL - DPE;27/06/2013;594.12;G;19.34;C;Commerce;1940;0.00;75;PARIS - 9EME;NOTRE DAME DE LORETTE;43;/;/;Rez de chaussée;/;75009;NC;1;APAVE CERTIFICATION;195 rue de Vaugirard 75378 PARIS CEDEX;2.336087;48.879509;43 Rue Notre-Dame de Lorette 75009 Paris;N : Restaurants et débits de boisson;H1
1375V7000061O;3CL - DPE;27/06/2013;385.23;F;12.54;C;Commerce;1940;0.00;75;PARIS - 17EME;RUHMKORFF;8;/;/;Rez de chaussée;/;75017;NC;1;APAVE CERTIFICATION;195 rue de Vaugirard 75378 PARIS CEDEX;2.286337;48.881629;8 Rue Ruhmkorff 75017 Paris;GHW : Bureaux;H1
1375V8000166V;FACTURE;06/08/2013;2691.46;G;103.46;G;\N;1910;34.10;75;PARIS;10 rue de Bagnolet;\N;\N;\N;\N;\N;75020;1 et 13;1;Afnor;11 rue Francis de Pressensé 93571;2.395572;48.856652;10 Rue de Bagnolet 75020 Paris;M : Magasins de vente, centres commerciaux;H1
1391V7000017N;FACTURE SEULE;02/08/2013;466.22;F;15.18;C;\N;1969;40.00;91;MONTGERON;de la République;81,;\N;\N;\N;\N;91230;\N;1;Institut de Certification ICERT;ICERT Parc Edonia - Bâtiment G Rue de la Terre Victoria 35760 Saint-Grégoire;2.458059;48.70565;81 Avenue de la République 91230 Montgeron;;H1
1392V8000048T;FACTURE;08/08/2013;417.8;F;13.6;C;\N;1985;232.10;92;ISSY-LES-MOULINEAUX;32 rue Diderot;\N;\N;\N;\N;\N;92130;22;1;GINGER Cated;12 avenue Gay Lussac 7890 ELANCOURT;2.272466;48.824393;32 Rue Diderot 92130 Issy-les-Moulineaux;M : Magasins de vente, centres commerciaux;H1
1378V3000007N;FACTURE SEULE;09/08/2013;637.65;F;20.76;C;\N;1969;30.00;78;MANTES LA JOLIE;de la Brasserie Saint Roch;14,;\N;\N;\N;\N;78200;\N;1;GINGER CATED;12, avenue Gay Lussac - ZAC la clef Saint Pierre, 78990 ELANCOURT;1.716178;48.992881;14 Rue de la Brasserie Saint Roch 78200 Mantes-la-Jolie;;H1
1375V8000168X;Méthode Facture;12/08/2013;569;G;18;C;Autres (théâtres, salles de sport, restaurati;1947;29.11;75;PARIS;105 RUE DE CLIGNANCOURT;;;;;;75018;;1;;;2.410846;48.823175;105 Rue de Paris 94220 Charenton-le-Pont;;H1
1377V8000019U;3CL - DPE;12/08/2013;1169.26;G;38.07;D;Autres;1990;0.00;77;OTHIS;du Général de Nerval;19;Sans objet;Sans objet;Sans;Sans objet;77280;Non communiqué;1;Icert;rue de la Terre Victoria - Parc EDONIA - Bât. G 35760 SAINT-GRÉGOIRE;2.675204;49.075728;19 Rue Gérard de Nerval 77280 Othis;N : Restaurants et débits de boisson;H1
1395P5000007I;Factures;08/08/2013;399.94;F;93.59;F;;1948;430.00;95;PONTOISE;25 route d'Auvers sur Oise;NC;NC;;NC;;95000;NC;1;ITGA;test;2.118215;49.059927;25 Route d'Auvers 95300 Pontoise;N : Restaurants et débits de boisson;H1
1375V4000604O;FACTURE;12/08/2013;620.66;F;54.48;D;\N;1970;190.08;75;PARIS;5 rue Letellier;\N;\N;\N;\N;\N;75015;;1;I.Cert;parc EDONIA - bâtiment G - rue de la terre Victoria - 35 760 Saint Grégoire;2.294613;48.848619;5 Rue Letellier 75015 Paris;W : Administrations, banques, bureaux;H1
1391V7000018O;3CL - DPE;30/07/2013;582.39;G;18.96;C;Artisanat;1970;0.00;91;BONDOUFLE;Gustave Eiffel;17;;;;;91070;;1;DEKRA;;2.382467;48.621801;17 Rue Gustave Eiffel 91070 Bondoufle;W : Administrations, banques, bureaux;H1
1375V8000169Y;FACTURE;14/08/2013;541.72;G;17.63;C;\N;1875;34.10;75;PARIS;9, rue Robert Fleury;\N;\N;\N;\N;\N;75015;;1;DEKRA;5, avenue Garlande 92220 BAGNEUX;2.301525;48.843603;9 Rue Robert Fleury 75015 Paris;M : Magasins de vente, centres commerciaux;H1
1378V3000008O;Méthode Facture;15/08/2013;737;F;221;G;Bureau, Administration, Enseignement;1947;82.50;78;SARTROUVILLE;11, A. Jean Jaurès;;;Local Cial n°1;;;78500;Non communiqué;1;GINGER;12 avenue Gay Lussac ZAC LA CLEF ST PIERRE 78990 ELANCOURT (détail sur www.cofrac.fr programme n°4-4-11);2.10234;49.050348;11 Boulevard Jean Jaurès 95300 Pontoise;;H1
1378C2000003H;Méthode Facture;15/08/2013;8456;G;2536;G;Centres Commerciaux;1947;33.00;78;SARTROUVILLE;11, A. Jean Jaurès;;;Local Cial n°2;;;78500;Non communiqué;1;GINGER;12 avenue Gay Lussac ZAC LA CLEF ST PIERRE 78990 ELANCOURT (détail sur www.cofrac.fr programme n°4-4-11);2.10234;49.050348;11 Boulevard Jean Jaurès 95300 Pontoise;;H1
1392V8000051N;3CL - DPE;16/08/2013;397.74;F;12.95;C;Bureaux;1989;0.00;92;GENNEVILLIERS;des Barbanniers;3;B16;\N;2ème étage;\N;92230;Non communiqué;1;ICERT;Parc EDONIA - Bât G rue de la Terre Victoria 35760 SAINT-GRÉGOIRE;2.305068;48.935564;3 Allée des Barbanniers 92230 Gennevilliers;W : Administrations, banques, bureaux;H1
1377V8000025R;FACTURE;16/08/2013;1003.51;G;32.67;D;\N;1900;75.90;77;SAINT-MAMMÈS;54 Quai de Seine;\N;\N;\N;\N;\N;77670;;1;SGS;26, Avenue Aristid Briand Arcueil;2.804158;48.387152;54 Quai de Seine 77670 Saint-Mammès;M : Magasins de vente, centres commerciaux;H1
1395V8000037U;3CL - DPE;26/07/2013;983.9;G;32.03;D;Commerce;1960;0.00;95;TAVERNY;d'Herblay;153;;;;;95150;;1;ICERT;Parc EDONIA - Bâtiment G Rue de la Terre Victoria 35760 ST GREGOIRE;2.205438;49.013067;153 Rue d'Herblay 95150 Taverny;;H1
1375V8000171R;Méthode Facture;20/08/2013;716;G;23;C;Autres (théâtres, salles de sport, restaurati;1947;134.20;75;PARIS;14 RUE SAINT PLACIDE;;;LOCAL COMMERCIAL;;;75006;;1;Bureau véritas;Immeuble Le Guillaumet - 60 Avenue du Général de Gaulle - 92800 PUTEAUX (détail sur www.cofrac.fr programme n°4-4-11);2.428682;48.872825;Rue Saint Simon 93170 Bagnolet;;H1
1377XX000018I;3CL - DPE;21/08/2013;482.09;F;15.7;C;Industrie;1990;0.00;77;OZOIR LA FERRIÈRE;François de Tessant;35;Sans objet;Sans objet;Rez de chaussée;Sans objet;77330;Non communiqué;1;Icert;rue de la Terre Victoria - Parc EDONIA - Bât. G 35760 SAINT-GRÉGOIRE;2.700282;48.75865;35 Rue François de Tessan 77330 Ozoir-la-Ferrière;GHW : Bureaux;H1
1377XX000019J;3CL - DPE;22/08/2013;675.99;G;22.01;C;Commerce;1920;0.00;77;MONTEREAU-FAUT-YONNE;rue Jean Jaurès;92,;\N;\N;Rez de chaussée;\N;77130;NC;1;SGS;;2.95444;48.382836;92 Rue Jean Jaurès 77130 Montereau-Fault-Yonne;;H1
1377XX000020B;3CL - DPE;22/08/2013;440.08;F;14.33;C;;1930;0.00;77;MITRY-MORY;Franklin Roosevelt;83;\N;\N;\N;\N;77290;Non communiqué par le donneur d'ordre;1;CERTIFI;37 route de Paris 31140 AUCAMVILLE;5.9117456;45.7084486;Avenue Franklin Roosevelt (Pont) Aix-les-Bains;W : Administrations, banques, bureaux;H1
1391V7000020H;FACTURE SEULE;25/06/2013;439.8;F;14.32;C;\N;1969;119.00;91;SAVIGNY SUR ORGE;Louis Jacques Mézard;3,;\N;\N;\N;\N;91600;\N;1;ICERT;Parc Edonia - Bâtiment G, Rue de la Terre Victoria, 35760 Saint-Grégoire;;;;;H1
1392V8000052O;FACTURE;26/08/2013;525.63;G;17.11;C;\N;1980;98.78;92;COURBEVOIE;8 rue de l'Abreuvoir;\N;\N;\N;\N;\N;92400;5004;1;GINGER Cated;12 avenue Gay Lussac 7890 ELANCOURT;2.254806;48.891318;8 Rue de l'Abreuvoir 92400 Courbevoie;M : Magasins de vente, centres commerciaux;H1
1375V8000175V;Méthode Facture;27/08/2013;1346;G;43;D;Autres (théâtres, salles de sport, restaurati;1947;211.20;75;PARIS;27 RUE EUGENE VARLIN;;;;;;75010;Non communiqué(s);1;QUALIXPERT 17 RUE BORREL 81100 CASTRESN° C 948;17 rue Borrel 81100 CASTRES (détail sur www.cofrac.fr programme n°4-4-11);2.495553;48.898104;27 Rue Eugène Masson 93140 Bondy;;H1
1392V4000359U;FACTURE;27/08/2013;616.89;F;20.08;C;\N;1989;440.00;92;BOULOGNE-BILLANCOURT;6 RUE LOUIS PASTEUR;\N;\N;\N;\N;\N;92200;;1;ICERT;n/c;2.273056;48.886904;6 Villa Pasteur 92200 Neuilly-sur-Seine;;H1
1395V3000017N;facture;27/08/2013;931.74;G;30.34;C;\N;1930;40.00;95;MONTMORENCY;Montmorency;153;\N;\N;\N;\N;95160;;1;VERITAS;VERITAS;2.316627;48.977679;153 Boulevard de Montmorency 95160 Montmorency;;H1
1375V8000177X;3CL - DPE;28/08/2013;686.83;G;22.36;C;Commerce;1900;0.00;75;PARIS - 16EME;, du Président Wilson;1;;;1er;Droite;75016;7;1;ABCIDIA CERTIFICATION;4, route de la Noue 91190 GIF-SUR-YVETTE;2.300306;48.864782;1 Avenue du Président Wilson 75016 Paris;W : Administrations, banques, bureaux;H1
1378V7000017S;FACTURE SEULE;28/08/2013;1185.93;G;174.5;G;\N;1969;200.00;78;ROSNY SUE SEINE;Nationale;74;\N;\N;\N;\N;78710;\N;1;GINGER CATED;12, avenue gay lussac - zac la clef st pierre, 78990 elancourt;;;;;H1
1394V4000217P;FACTURE - DPE;28/08/2013;562.67;F;18.32;C;Garage;1948;136.00;94;SAINT-MAURICE;128 RUE DE MARECHAL LECLERC;;;;;;94410;;1;DEKRA;5 AVENUE GARLANDE  92220  BAGNEUX;2.44352;48.817802;128 Rue du Maréchal Leclerc 94410 Saint-Maurice;;H1
1394XX000015E;3CL - DPE;26/06/2013;1071.58;G;34.89;D;Commerce;1947;0.00;94;NOGENT-SUR-MARNE;des Héros Nogentais;56;;;RDC;;94130;14;1;ABCIDIA CERTIFICATION;4, route de la Noue 91190 GIF-SUR-YVETTE;2.487239;48.838326;56 Rue des Héros Nogentais 94130 Nogent-sur-Marne;;H1
1375V8000180R;3CL - DPE;28/08/2013;509.46;F;16.59;C;Commerce;1900;0.00;75;PARIS - 16EME;, du Président Wilson;1;;;1er;Gauche;75016;104;1;ABCIDIA CERTIFICATION;4, route de la Noue 91190 GIF-SUR-YVETTE;2.300306;48.864782;1 Avenue du Président Wilson 75016 Paris;W : Administrations, banques, bureaux;H1
1377V7000019T;FACTURE;28/08/2013;1673.01;G;54.47;E;\N;1995;55.00;77;MEAUX;61, Avenue Henri Dunant;\N;\N;\N;\N;\N;77100;;1;Bureau Veritas Certification;60, Avenue du Général de Gaulle 92046 PARIS LA DEFENSE;;;;M : Magasins de vente, centres commerciaux;H1
1377V8000026S;Méthode Facture;29/08/2013;495;F;115;G;Autres (théâtres, salles de sport, restaurati;1947;352.00;77;CHELLES;95, Av. des Sciences;;;;;;77500;;1;ABCIDIA Certification;4 route de la Noue 91190 GIF SUR YVETTE (détail sur www.cofrac.fr programme n°4-4-11);;;;;H1
1395V7000027S;FACTURE SEULE;21/08/2013;1266.03;G;66.68;E;\N;1969;312.00;95;MAGNY EN VEXIN;Carnot;28-30;\N;\N;\N;\N;95420;\N;1;LCC QUALIXPERT;17 rue Borrel 81100 CASTRES;1.78592;49.155038;30 Rue Carnot 95420 Magny-en-Vexin;;H1
1375V4000705Q;facture;26/08/2013;838.57;G;27.3;C;\N;1974;18.46;75;PARIS 20;RODIER;29;\N;\N;\N;\N;75020;(Non communiqué);1;BUREAU VERITAS CERTIFICATION;BUREAU VERITAS CERTIFICATION;2.343049;48.879053;29 Rue Rodier 75009 Paris;;H1
1375C2000012E;Méthode Facture;02/09/2013;397;F;12;B;Centres Commerciaux;1947;25.30;75;PARIS 17;20, rue TORRICELLI;;;RDC;;;75017;Non communiqué;1;Bureau Veritas Certification;Immeuble Le Guillaumet - 60 Avenue du Général de Gaulle - 92800 PUTEAUX (détail sur www.cofrac.fr programme n°4-4-11);2.500477;48.826034;20 Rue de Prétoria 94500 Champigny-sur-Marne;;H1
1375V3000105J;FACTURE;02/09/2013;635.2;F;20.68;C;\N;1900;113.26;75;PARIS;30 AVENUE DE L'OPERA;\N;\N;\N;\N;\N;75002;;1;ICERT;n/c;2.333659;48.868024;30 Avenue de l'Opéra 75002 Paris;;H1
1375V4000727U;Méthode Facture;04/09/2013;959;G;31;D;Bureau, Administration, Enseignement;1947;150.70;75;PARIS 8;Cmd 2013-117048 8 boulevard de la madeleine lot 1;;;rez de chaussée;;;75008;1;1;Bureau Veritas;Immeuble Le Guillaumet - 60 Avenue du Général de Gaulle - 92800 PUTEAUX (détail sur www.cofrac.fr programme n°4-4-11);2.456417;48.910754;Rue de la Madeleine 93000 Bobigny;;H1
1375XX000042D;3CL - DPE;29/08/2013;791.47;G;25.77;C;Commerce;1947;0.00;75;PARIS - 8EME;Jean Mermoz;19;;;RDC;;75008;9;1;ABCIDIA CERTIFICATION;4, route de la Noue 91190 GIF-SUR-YVETTE;2.31193;48.871513;19 Rue Jean Mermoz 75008 Paris;;H1
1394V7000023N;FACTURE;05/09/2013;580.04;G;18.88;C;\N;1900;52.25;94;NOGENT-SUR-MARNE;184 grande rue Charles de Gaulle - commerce;\N;\N;\N;\N;\N;94130;;1;DEKRA;n/c;2.492828;48.838208;184 Grande Rue Charles de Gaulle 94130 Nogent-sur-Marne;;H1
1375C2000013F;Méthode Facture;25/04/2013;766;G;24;C;Centres Commerciaux;1947;55.00;75;PARIS 02;22, rue de Turbigo;;;RdC;;;75002;Non communiqué;1;GINGER;12 avenue Gay Lussac ZAC LA CLEF ST PIERRE 78990 ELANCOURT (détail sur www.cofrac.fr programme n°4-4-11);2.301183;48.744042;22 Rue de Verdun 92160 Antony;;H1
1377V4000089X;FACTURE - DPE;29/08/2013;1510.89;G;49.19;D;bureaux;1948;\N;77;CHELLES;72 AVENUE DE LA RESISTANCE;;;;;;77500;;1;BUREAU VERITAS CERTIFICATION FRANCE;60  AVENUE DU GENERAL DE GAULLE 92046 PARIS LA DEFENSE;2.581705;48.874611;72 Avenue de la Résistance 77500 Chelles;;H1
1392V4000387V;Méthode Facture;06/09/2013;581;F;30;C;Bureau, Administration, Enseignement;1;161.70;92;CHÂTENAY-MALABRY;9-11 AVENUE DU PLESSIS;;;;;;92290;184 - 186;1;DEKRA Certification;3/5 avenue Garlande 92220 BAGNEUX (détail sur www.cofrac.fr programme n°4-4-11);;;;;H1
1375XX000043E;3CL - DPE;06/09/2013;2408.51;G;78.42;F;Commerce;1947;0.00;75;PARIS - 8EME;de Berri;45;;;RDC - 1er Etage - 1er Sous-Sol et 2ème Sous-S;;75008;;1;ABCIDIA CERTIFICATION;4, route de la Noue 91190 GIF-SUR-YVETTE;2.307597;48.874404;45 Rue de Berri 75008 Paris;;H1
1377V8000031O;Méthode Facture;06/09/2013;492;F;60;E;Autres (théâtres, salles de sport, restaurati;1947;154.00;77;COULOMMIERS;13 Cours GAMBETTA;;;LOCAL COMMERCIAL 140M2;;;77120;;1;Abcidia;4 route de la Noue 91190 GIF SUR YVETTE (détail sur www.cofrac.fr programme n°4-4-11);;;;;H1
1392V8000058U;FACTURE - DPE;05/09/2013;1335.05;G;52.54;E;Restauration;1948;\N;92;ISSY-LES-MOULINEAUX;Galliéni;22;;;;;92130;;1;VERITAS;92046 PARIS LA DEFENSE CEDEX;2.266998;48.832791;22 Boulevard Galliéni 92130 Issy-les-Moulineaux;;H1
1375V7000080P;3CL - DPE;08/09/2013;912;G;30;D;Commerce;1974;0.00;75;PARIS 2;4345, avenue de l Opera;\N;BATIMENT A & B;\N;Rez de chaussee & 1er Etage;\N;75002;2;1;ABERGEL;48 , RUE SARRETTE 75685 PARIS CEDEX 14;;;;;H1
1375V8000202M;Méthode Facture;09/09/2013;1112;G;36;D;Autres (théâtres, salles de sport, restaurati;1947;82.50;75;PARIS;133 AVENUE DE SAINT OUEN;;;;;;75017;Non communiqué(s);1;C 378 QUALIXPERT 17 RUE BORREL 81100 CASTRES;17 rue Borrel 81100 CASTRES (détail sur www.cofrac.fr programme n°4-4-11);2.520078;48.819716;Avenue de Saint Mande 94500 Champigny-sur-Marne;;H1
1392V8000059V;FACTURE;09/09/2013;594.6;G;19.35;C;\N;1996;291.50;92;CLICHY;7, avenue Claude  Debussy;\N;\N;\N;\N;\N;92110;;1;SGS;29, avenue Aristide Briand;2.308321;48.90953;7 Avenue Claude Debussy 92110 Clichy;M : Magasins de vente, centres commerciaux;H1
1377V8000032P;3CL - DPE;06/09/2013;2969.31;G;96.68;G;Autres;2000;0.00;77;MITRY-MORY;AVENUE PABLO PICASSO;\N;--;;--;;77290;;1;SOCOTEC CERTIFICATION;89-93 avenue Paul Vaillant Couturier 94250 GENTILLY;2.64634;48.974035;Avenue Pablo Picasso 77290 Mitry-Mory;;H1
1394V4000238S;FACTURE - DPE;09/09/2013;768.97;G;25.04;C;Atelier;1948;20.00;94;VINCENNES;Gilbert Clerfayt;10;;;;;94300;;1;SQI SOCOTEC CERTIFICATION;89 / 93, AVE. PAUL VAILLANT COUTURIER 94250  GENTILLY;2.430467;48.850461;10 Rue Gilbert Clerfayt 94300 Vincennes;;H1
1391V3000028L;Méthode Facture;10/09/2013;562;F;18;C;Bureau, Administration, Enseignement;1;69.62;91;GIF SUR YVETTE;CC DE L'ABBAYE ROUTE DE L'ABBAYE;;;;;;91190;Sans objet;1;C0254 QUALIXPERT 17 RUE BOREL 81100 CASTRES;17 rue Borrel 81100 CASTRES (détail sur www.cofrac.fr programme n°4-4-11);;;;;H1
1395V8000040O;Méthode Facture;06/09/2013;500;F;21;C;Autres (théâtres, salles de sport, restaurati;1947;170.50;95;L'ISLE-ADAM;2, Avenue Michel Poniatowski;;;RDC / 1er étage;;;95290;Non communiqué;1;I.Cert;Parc Edonia - Bâtiment G Rue de la Terre Victoria 35760 SAINT GREGOIRE (détail sur www.cofrac.fr programme n°4-4-11);;;;;H1
1375C1000018J;FACTURE SEULE;30/08/2013;1354.42;G;185.36;G;\N;1969;790.00;75;SAINT MAXIMIN LA SAINTE BAUME;Avenue Albert 1ier;3;\N;\N;\N;\N;83470;\N;1;QUALIXPERT C250;17 rue Borrel, 81100 CASTRES, Nom et adresse de votre organisme certificateur, Faites ENTER pour aller à la ligne;;;;;H1
1375V8000205P;FACTURE;11/09/2013;787.53;G;25.64;C;\N;1900;167.20;75;PARIS;7, rue Bayen;\N;\N;\N;\N;\N;75017;;1;I.Cert;Parc EDONIA - Bât G - Rue de la Terre Victoria - 35760 SAINT-GREGOIRE;2.295498;48.878796;7 Rue Bayen 75017 Paris;M : Magasins de vente, centres commerciaux;H1
1375V8000207R;Méthode Facture;05/09/2013;1390;G;45;D;Autres (théâtres, salles de sport, restaurati;1947;72.08;75;PARIS;15 rue Lamartine;;;Rez de chaussée;;;75009;;1;AFNOR Certification;11 avenue Francis de Pressensé  93571 SAINT DENIS LA PLAINE CEDEX (détail sur www.cofrac.fr programme n°4-4-11);2.273371;48.924767;15 Rue Armand Lépine 92270 Bois-Colombes;;H1
1375V8000209T;Méthode Facture;05/09/2013;1390;G;45;D;Autres (théâtres, salles de sport, restaurati;1947;72.08;75;PARIS;15 rue Lamartine;;;Rez de chaussée;;;75009;;1;AFNOR Certification;11 avenue Francis de Pressensé  93571 SAINT DENIS LA PLAINE CEDEX (détail sur www.cofrac.fr programme n°4-4-11);2.273371;48.924767;15 Rue Armand Lépine 92270 Bois-Colombes;;H1
1395V8000041P;Méthode Facture;12/09/2013;441;F;14;C;Autres (théâtres, salles de sport, restaurati;1947;202.40;95;TAVERNY;51 RUE DES LILAS LIEUDIT RUE DES PEUPLIERS;;;;;;95150;9;1;C0254 QUALIXPERT 17 RUE BOREL 81100 CASTRES;17 rue Borrel 81100 CASTRES (détail sur www.cofrac.fr programme n°4-4-11);;;;;H1
1375V6000013K;3CL - DPE;12/09/2013;3682.38;G;319.91;G;;1900;0.00;75;PARIS - 20EME;des Envierges;10;;Sans objet;RDC;Sans objet;75020;NC;1;AFNOR Certification;11 Rue Francis de Pressensé 93571 SAINT-DENIS CEDEX;2.38622;48.871607;10 Rue des Envierges 75020 Paris;M : Magasins de vente, centres commerciaux;H1
1375V7000084T;Méthode Facture;10/09/2013;444;F;104;G;Autres (théâtres, salles de sport, restaurati;1947;330.00;75;PARIS;51 Bd du Montparnasse;;;RDC et 1 ère étage (2 appartements);;;75015;Non communiqué;1;Bureau Veritas;Immeuble Le Guillaumet - 60 Avenue du Général de Gaulle - 92800 PUTEAUX (détail sur www.cofrac.fr programme n°4-4-11);;;;;H1
1394V4000246R;Méthode Facture;12/07/2013;689;F;22;C;Bureau, Administration, Enseignement;1947;49.95;94;SAINT MAUR DES FOSSES;2 rue du Caporal Peugeot;;;Etage RDC;;;94100;;1;;;;;;;H1
1375V8000212N;FACTURE;13/09/2013;1695.61;G;88.9;F;\N;1900;1492.70;75;PARIS;21 Place de la Madeleine;\N;\N;\N;\N;\N;75008;;1;ICERT;Parc Edonia, Bât G, Rue de la terre Victoria, 35760 Saint-Grégoire;2.324185;48.871004;21 Place de la Madeleine 75008 Paris;;H1
1377V8000033Q;FACTURE;13/09/2013;386.89;F;43.48;D;\N;1900;115.50;77;AVON;2 rue Katerine Mansfield;\N;\N;\N;\N;\N;77210;101/204/205;1;SGS;26, Avenue Aristid Briand Arcueil;2.731532;48.414992;2 Rue Katherine Mansfield 77210 Avon;M : Magasins de vente, centres commerciaux;H1
1375V8000213O;Méthode Facture;13/09/2013;509;F;16;C;Autres (théâtres, salles de sport, restaurati;1947;27.50;75;PARIS;156 rue de courcelles;;;;;;75017;Non communiqué;1;GINGER CATED;12 avenue Gay Lussac ZAC LA CLEF ST PIERRE 78990 ELANCOURT (détail sur www.cofrac.fr programme n°4-4-11);2.50065;48.813838;156 Rue de Verdun 94500 Champigny-sur-Marne;;H1
1375V3000123J;3CL - DPE;13/09/2013;951;G;31;D;Bureaux;1974;0.00;75;PARIS 9EME;3 RUE ROSSIGNI;\N;\N;\N;\N;\N;75009;\N;1;CESI;30 RUE CAMBRONNE 75015 PARIS;;;;;H1
1375V8000214P;3CL - DPE;12/09/2013;1882.56;G;61.29;E;Commerce;1947;0.00;75;PARIS - 2EME;Poissonnière;9;;;RDC;;75002;NC;1;ABCIDIA CERTIFICATION;4 route de la Noue 91190 GIF SUR YVETTE;2.346445;48.870757;9 Boulevard Poissonnière 75002 Paris;;H1
1375XX000048J;3CL - DPE;13/09/2013;1299.42;G;42.31;D;Habitation (Parties privatives d'immeuble col;1890;0.00;75;PARIS - 6EME;Saint Germain;108;;;RDC, 1er et sous-sol;;75006;NC;1;BUREAU VERITAS CERTIFICATION;60 avenue du General de Gaulle 92046 Paris La defense;2.341973;48.851837;108 Boulevard Saint-Germain 75006 Paris;M : Magasins de vente, centres commerciaux;H1
1394V7000025P;FACTURE;13/09/2013;877.7;G;205.38;G;\N;1940;40.98;94;VINCENNES;209 Rue de FONTENAY;\N;\N;\N;\N;\N;94300;;1;I.Cert;Parc EDONIA - Bât. G Rue de la Terre Victoria 35760 Saint - Grégoire;2.42689;48.848819;209 Rue de Fontenay 94300 Vincennes;M : Magasins de vente, centres commerciaux;H1
1375V8000215Q;Méthode Facture;31/07/2013;766;G;24;C;Autres (théâtres, salles de sport, restaurati;1947;39.72;75;PARIS;30 BOULEVARD BARBES;;;BOUTIQUE;;;75018;;1;Bureau véritas;Immeuble Le Guillaumet - 60 Avenue du Général de Gaulle - 92800 PUTEAUX (détail sur www.cofrac.fr programme n°4-4-11);;;;;H1
1375V7000095V;FACTURE;13/09/2013;647.97;G;21.09;C;\N;1900;30.59;75;PARIS;58-60 rue du Vertbois;\N;\N;\N;\N;\N;75003;;1;AFAQ;11 rue Francis de Pressensé 93571 La Plaine Saint Denis Cedex;2.356411;48.867439;60 Rue du Vertbois 75003 Paris;M : Magasins de vente, centres commerciaux;H1
1378V8000074W;FACTURE - DPE;15/09/2013;560.42;G;62.05;E;;1948;123.20;78;CHATOU;Route de Maisons;45;;;;;78400;;1;AFNOR CERTIFICATION;11, rue Francis de Pressensé, 93571 LA PLAINE SAINT-DENIS Cedex;2.15443;48.898368;45 Route de Maisons 78400 Chatou;;H1
1375V8000217S;Méthode Facture;12/09/2013;1314;G;42;D;Autres (théâtres, salles de sport, restaurati;1947;38.50;75;PARIS;37, rue de Clignancourt;;;"Bat. A; Etage rdc";;;75018;2 et 18, cave 16;1;Bureau Véritas Certification;Immeuble Le Guillaumet - 60 Avenue du Général de Gaulle - 92800 PUTEAUX (détail sur www.cofrac.fr programme n°4-4-11);2.40961;48.822811;Rue de Conflans 94220 Charenton-le-Pont;;H1
1375V7000097X;Méthode Facture;14/09/2013;601;G;39;D;Autres (théâtres, salles de sport, restaurati;1947;154.00;75;PARIS;2, rue Baillou;;;"Bat. A; Etage rdc";;;75014;1;1;Bureau Véritas Certification;Immeuble Le Guillaumet - 60 Avenue du Général de Gaulle - 92800 PUTEAUX (détail sur www.cofrac.fr programme n°4-4-11);2.314988;48.775383;2 Rue Brun 92340 Bourg-la-Reine;;H1
1391V4000164N;3CL - DPE;11/09/2013;546.34;F;17.79;C;Bureaux;2001;0.00;91;MASSY;Carnot;30;\N;\N;1er étage;\N;91300;Non communiqué;1;I-CERT;;2.264861;48.728599;30 Avenue Carnot 91300 Massy;;H1
1375XX000050C;3CL - DPE;26/06/2013;687.63;G;22.39;C;Local d'activité;1900;0.00;75;PARIS - 1ER;Française;4;\N;\N;Rez de chaussée;Sur rue;75001;2 et 23;1;Bureau VERITAS Certification;;2.347599;48.863891;4 Rue Française 75001 Paris;U : Établissements de soins;H1
1391V8000042M;Méthode Facture;16/09/2013;902;G;29;D;Autres (théâtres, salles de sport, restaurati;1;77.00;91;JUVISY SUR ORGE;1 RUE PIVER;;;;;;91260;10 7 4;1;C1674 QUALIXPERT 17 RUE BOREL 81100 CASTRES;17 rue Borrel 81100 CASTRES (détail sur www.cofrac.fr programme n°4-4-11);;;;;H1
1392V8000061O;3CL - DPE;16/09/2013;2428;G;212;G;Commerce;1974;0.00;92;LEVALLOIS PERRET;GABRIEL PERI;43;Rue;\N;Rez de chaussee;Rdc rue;92300;23;1;BUREAU VERITAS CERTIFICATION;5 CHEMIN DU JUBIN - 69574 DARDILLY CEDEX;2.287087;48.89267;43 Rue Gabriel Péri 92300 Levallois-Perret;;H1
1378C2000007L;Méthode Facture;17/09/2013;1077;G;35;D;Centres Commerciaux;1947;68.20;78;VERSAILLES;8 RUE Andre Chesnier;;;;;;78000;Non communiqué;1;DEKRA;3/5 avenue Garlande 92220 BAGNEUX (détail sur www.cofrac.fr programme n°4-4-11);;;;;H1
1394V4000253P;FACTURE;17/09/2013;671.26;F;21.85;C;\N;1982;422.79;94;VILLEJUIF;100 avenue de Stalingrad;\N;\N;\N;\N;\N;94800;Nc;1;AFAQ;11 rue Francis de Pressensé 93571 La Plaine Saint Denis;2.366931;48.783434;100 Avenue de Stalingrad 94800 Villejuif;W : Administrations, banques, bureaux;H1
1392C2000005F;Méthode Facture;17/09/2013;495;G;90;G;Centres Commerciaux;1947;362.01;92;ASNIÈRES-SUR-SEINE;3 RUE DES CHAMPS;;;;;;92600;13 ET 18;1;GINGER CATED;12 avenue Gay Lussac ZAC LA CLEF ST PIERRE 78990 ELANCOURT (détail sur www.cofrac.fr programme n°4-4-11);;;;;H1
1392V7000013K;FACTURE SEULE;18/09/2013;386.39;F;12.58;C;\N;1969;31.00;92;BOULOGNE BILLANCOURT;Jean Jaurès;10;\N;\N;\N;\N;92100;\N;1;SQI;Les Quadrants 3 AV du centre Guyancourt 78182 St Quentin en Yvelines;2.237223;48.844736;10 Boulevard Jean Jaurès 92100 Boulogne-Billancourt;;H1
1393V7000027Q;FACTURE;18/09/2013;419.95;F;80.96;F;\N;1970;440.00;93;NOISY-LE-GRAND;45 Avenue Georges CLEMENCEAU;\N;\N;\N;\N;\N;93160;;1;GINGER CATED;12 av Gay Lussac 78990 Elancourt;2.558898;48.843658;45 Avenue Georges Clemenceau 93160 Noisy-le-Grand;W : Administrations, banques, bureaux;H1
1375V8000223P;FACTURE;18/09/2013;399.78;F;13.01;C;\N;1930;88.00;75;PARIS;70 rue JP THIMBAUT;\N;\N;\N;\N;\N;75011;;1;GINGER CATED;12 av Gay Lussac 78990 Elancourt;2.375056;48.867006;70 Rue Jean-Pierre Timbaud 75011 Paris;W : Administrations, banques, bureaux;H1
1394V8000036S;Méthode Facture;18/09/2013;1745;G;56;E;Autres (théâtres, salles de sport, restaurati;1947;176.00;94;VITRY-SUR-SEINE;95 avenue du Colonel Fabien;;;Etage RDC;;;94400;1;1;QUALIXPERT;17 rue Borrel 81100 CASTRES (détail sur www.cofrac.fr programme n°4-4-11);6.1943417;43.3006923;Avenue du Colonel Fabien (Pont) Carnoules;;H1
1395V8000046U;Méthode Facture;18/09/2013;764;G;24;C;Autres (théâtres, salles de sport, restaurati;1947;16.68;95;ENGHIEN LES BAINS;18 BD D'ORMESSON;;;;;;95880;Non communiqué(s);1;C115 QUALIXPERT 17 RUE BORREL 81100 CASTRES;17 rue Borrel 81100 CASTRES (détail sur www.cofrac.fr programme n°4-4-11);;;;;H1
1394V8000037T;Méthode Facture;19/09/2013;383;F;37;D;Autres (théâtres, salles de sport, restaurati;1947;48.40;94;IVRY-SUR-SEINE;77 Avenue danielle casanova;;;;;;94200;Non communiqué;1;GINGER CATED;12 avenue Gay Lussac ZAC LA CLEF ST PIERRE 78990 ELANCOURT (détail sur www.cofrac.fr programme n°4-4-11);;;;;H1
